{"type":"FeatureCollection","features":[{"type":"Feature","geometry":{"type":"Point","coordinates":[-71.210894,-34.978914]},"properties":{"A\u00d1O":2020,"COD_INST":54,"TIPO_INST":"Universidades Privadas","NOMBRE_INS":"UNIVERSIDAD TECNOL\u00d3GICA DE CHILE INACAP","NOMBRE_INM":"INACAP CURICO","COD_REGION":7,"REGI\u00d3N":"REGI\u00d3N DEL MAULE","COD_PROVIN":73,"PROVINCIA":"CURIC\u00d3","COD_COMUNA":7301,"COMUNA":"CURIC\u00d3","DIRECCION":"ARCHIPIELAGO JUAN FERNANDEZ","NUMERO_DI":2010,"LUGAR_REFE":"","LATITUD":-34.978914,"LONGITUD":-71.210894}},{"type":"Feature","geometry":{"type":"Point","coordinates":[-71.210894,-34.978914]},"properties":{"A\u00d1O":2020,"COD_INST":100,"TIPO_INST":"Institutos Profesionales","NOMBRE_INS":"IP INACAP","NOMBRE_INM":"INACAP CURICO","COD_REGION":7,"REGI\u00d3N":"REGI\u00d3N DEL MAULE","COD_PROVIN":73,"PROVINCIA":"CURIC\u00d3","COD_COMUNA":7301,"COMUNA":"CURIC\u00d3","DIRECCION":"ARCHIPIELAGO JUAN FERNANDEZ","NUMERO_DI":2010,"LUGAR_REFE":"","LATITUD":-34.978914,"LONGITUD":-71.210894}},{"type":"Feature","geometry":{"type":"Point","coordinates":[-71.210894,-34.978914]},"properties":{"A\u00d1O":2020,"COD_INST":430,"TIPO_INST":"Centros de Formaci\u00f3n T\u00e9cnica","NOMBRE_INS":"CFT INACAP","NOMBRE_INM":"INACAP CURICO","COD_REGION":7,"REGI\u00d3N":"REGI\u00d3N DEL MAULE","COD_PROVIN":73,"PROVINCIA":"CURIC\u00d3","COD_COMUNA":7301,"COMUNA":"CURIC\u00d3","DIRECCION":"ARCHIPIELAGO JUAN FERNANDEZ","NUMERO_DI":2010,"LUGAR_REFE":"","LATITUD":-34.978914,"LONGITUD":-71.210894}},{"type":"Feature","geometry":{"type":"Point","coordinates":[-71.235893,-34.982714]},"properties":{"A\u00d1O":2020,"COD_INST":367,"TIPO_INST":"Centros de Formaci\u00f3n T\u00e9cnica","NOMBRE_INS":"CFT SAN AGUST\u00cdN","NOMBRE_INM":"SEDE CURICO - ARRIENDO","COD_REGION":7,"REGI\u00d3N":"REGI\u00d3N DEL MAULE","COD_PROVIN":73,"PROVINCIA":"CURIC\u00d3","COD_COMUNA":7301,"COMUNA":"CURIC\u00d3","DIRECCION":"CHACABUCO","NUMERO_DI":760,"LUGAR_REFE":"","LATITUD":-34.982714,"LONGITUD":-71.235893}},{"type":"Feature","geometry":{"type":"Point","coordinates":[-71.2381666302368,-34.9834227583821]},"properties":{"A\u00d1O":2020,"COD_INST":92,"TIPO_INST":"Universidades (* Carrera en Convenio)","NOMBRE_INS":"UNIVERSIDAD CAT\u00d3LICA DEL MAULE","NOMBRE_INM":"CAMPUS CARMEN","COD_REGION":7,"REGI\u00d3N":"REGI\u00d3N DEL MAULE","COD_PROVIN":73,"PROVINCIA":"CURIC\u00d3","COD_COMUNA":7301,"COMUNA":"CURIC\u00d3","DIRECCION":"PRAT","NUMERO_DI":259,"LUGAR_REFE":"","LATITUD":-34.983423,"LONGITUD":-71.238167}},{"type":"Feature","geometry":{"type":"Point","coordinates":[-71.238213,-34.983851]},"properties":{"A\u00d1O":2020,"COD_INST":92,"TIPO_INST":"Universidades (* Carrera en Convenio)","NOMBRE_INS":"UNIVERSIDAD CAT\u00d3LICA DEL MAULE","NOMBRE_INM":"CAMPUS CARMEN","COD_REGION":7,"REGI\u00d3N":"REGI\u00d3N DEL MAULE","COD_PROVIN":73,"PROVINCIA":"CURIC\u00d3","COD_COMUNA":7301,"COMUNA":"CURIC\u00d3","DIRECCION":"CARMEN","NUMERO_DI":684,"LUGAR_REFE":"","LATITUD":-34.983851,"LONGITUD":-71.238213}},{"type":"Feature","geometry":{"type":"Point","coordinates":[-71.239255,-34.984512]},"properties":{"A\u00d1O":2020,"COD_INST":92,"TIPO_INST":"Universidades (* Carrera en Convenio)","NOMBRE_INS":"UNIVERSIDAD CAT\u00d3LICA DEL MAULE","NOMBRE_INM":"CAMPUS CARMEN","COD_REGION":7,"REGI\u00d3N":"REGI\u00d3N DEL MAULE","COD_PROVIN":73,"PROVINCIA":"CURIC\u00d3","COD_COMUNA":7301,"COMUNA":"CURIC\u00d3","DIRECCION":"EDIFICIO MERCED","NUMERO_DI":333,"LUGAR_REFE":"","LATITUD":-34.984512,"LONGITUD":-71.239255}},{"type":"Feature","geometry":{"type":"Point","coordinates":[-71.240893,-34.984851]},"properties":{"A\u00d1O":2020,"COD_INST":116,"TIPO_INST":"Institutos Profesionales","NOMBRE_INS":"IP SANTO TOM\u00c1S","NOMBRE_INM":"","COD_REGION":7,"REGI\u00d3N":"REGI\u00d3N DEL MAULE","COD_PROVIN":73,"PROVINCIA":"CURIC\u00d3","COD_COMUNA":7301,"COMUNA":"CURIC\u00d3","DIRECCION":"MERCED","NUMERO_DI":487,"LUGAR_REFE":"","LATITUD":-34.984851,"LONGITUD":-71.240893}},{"type":"Feature","geometry":{"type":"Point","coordinates":[-71.240893,-34.984851]},"properties":{"A\u00d1O":2020,"COD_INST":260,"TIPO_INST":"Centros de Formaci\u00f3n T\u00e9cnica","NOMBRE_INS":"CFT SANTO TOM\u00c1S","NOMBRE_INM":"","COD_REGION":7,"REGI\u00d3N":"REGI\u00d3N DEL MAULE","COD_PROVIN":73,"PROVINCIA":"CURIC\u00d3","COD_COMUNA":7301,"COMUNA":"CURIC\u00d3","DIRECCION":"MERCED","NUMERO_DI":487,"LUGAR_REFE":"","LATITUD":-34.984851,"LONGITUD":-71.240893}},{"type":"Feature","geometry":{"type":"Point","coordinates":[-71.240793,-34.984865]},"properties":{"A\u00d1O":2020,"COD_INST":78,"TIPO_INST":"Universidades Estatales CRUCH","NOMBRE_INS":"UNIVERSIDAD DE TALCA","NOMBRE_INM":"CENTRO DE EXTENSION","COD_REGION":7,"REGI\u00d3N":"REGI\u00d3N DEL MAULE","COD_PROVIN":73,"PROVINCIA":"CURIC\u00d3","COD_COMUNA":7301,"COMUNA":"CURIC\u00d3","DIRECCION":"MERCED","NUMERO_DI":437,"LUGAR_REFE":"","LATITUD":-34.984865,"LONGITUD":-71.240793}},{"type":"Feature","geometry":{"type":"Point","coordinates":[-71.23856,-34.987517]},"properties":{"A\u00d1O":2020,"COD_INST":176,"TIPO_INST":"Institutos Profesionales","NOMBRE_INS":"IP VALLE CENTRAL","NOMBRE_INM":"SEDE CURICO","COD_REGION":7,"REGI\u00d3N":"REGI\u00d3N DEL MAULE","COD_PROVIN":73,"PROVINCIA":"CURIC\u00d3","COD_COMUNA":7301,"COMUNA":"CURIC\u00d3","DIRECCION":"CARMEN","NUMERO_DI":357,"LUGAR_REFE":"","LATITUD":-34.987517,"LONGITUD":-71.23856}},{"type":"Feature","geometry":{"type":"Point","coordinates":[-71.2354440918311,-34.9898637518887]},"properties":{"A\u00d1O":2020,"COD_INST":78,"TIPO_INST":"Universidades Estatales CRUCH","NOMBRE_INS":"UNIVERSIDAD DE TALCA","NOMBRE_INM":"MODULOS KINESIOLOGIA HOSPITAL CURICO","COD_REGION":7,"REGI\u00d3N":"REGI\u00d3N DEL MAULE","COD_PROVIN":73,"PROVINCIA":"CURIC\u00d3","COD_COMUNA":7301,"COMUNA":"CURIC\u00d3","DIRECCION":"AVENDIA SAN MARTIN","NUMERO_DI":0,"LUGAR_REFE":"","LATITUD":-34.989864,"LONGITUD":-71.235444}},{"type":"Feature","geometry":{"type":"Point","coordinates":[-71.244762,-34.991065]},"properties":{"A\u00d1O":2020,"COD_INST":143,"TIPO_INST":"Institutos Profesionales","NOMBRE_INS":"IP AIEP","NOMBRE_INM":"SEDE CURICO","COD_REGION":7,"REGI\u00d3N":"REGI\u00d3N DEL MAULE","COD_PROVIN":73,"PROVINCIA":"CURIC\u00d3","COD_COMUNA":7301,"COMUNA":"CURIC\u00d3","DIRECCION":"BERNARDO OHIGGINS","NUMERO_DI":201,"LUGAR_REFE":"","LATITUD":-34.991065,"LONGITUD":-71.244762}},{"type":"Feature","geometry":{"type":"Point","coordinates":[-71.2291274504741,-35.0016560443108]},"properties":{"A\u00d1O":2020,"COD_INST":78,"TIPO_INST":"Universidades Estatales CRUCH","NOMBRE_INS":"UNIVERSIDAD DE TALCA","NOMBRE_INM":"CAMPUS CURICO","COD_REGION":7,"REGI\u00d3N":"REGI\u00d3N DEL MAULE","COD_PROVIN":73,"PROVINCIA":"CURIC\u00d3","COD_COMUNA":7301,"COMUNA":"CURIC\u00d3","DIRECCION":"CAMINO A LOS NICHES","NUMERO_DI":1,"LUGAR_REFE":"CAMINO A LOS NICHES KM 1 SN","LATITUD":-35.001656,"LONGITUD":-71.229127}},{"type":"Feature","geometry":{"type":"Point","coordinates":[-71.1927160156689,-35.0276125563199]},"properties":{"A\u00d1O":2020,"COD_INST":92,"TIPO_INST":"Universidades (* Carrera en Convenio)","NOMBRE_INS":"UNIVERSIDAD CAT\u00d3LICA DEL MAULE","NOMBRE_INM":"CAMPUS SAN ISIDRO","COD_REGION":7,"REGI\u00d3N":"REGI\u00d3N DEL MAULE","COD_PROVIN":73,"PROVINCIA":"CURIC\u00d3","COD_COMUNA":7301,"COMUNA":"CURIC\u00d3","DIRECCION":"CAMINO A LOS NICHES","NUMERO_DI":5,"LUGAR_REFE":"KILOMETRO 5 S/N CAMINO A LOS NICHES","LATITUD":-35.027613,"LONGITUD":-71.192716}}]}