{"type":"FeatureCollection", "features": [
{"type":"Feature","geometry":{"type":"Point","coordinates":[-70.094432,-20.283158]},"properties":{"AÑO":2020,"COD_INST":906,"TIPO_INST":"Centros de Formación Técnica Estatales","NOMBRE_INS":"CFT DE LA REGIÓN DE TARAPACÁ","NOMBRE_INM":"SEDE CENTRAL","COD_REGION":1,"REGIÓN":"REGIÓN DE TARAPACÁ","COD_PROVIN":11,"PROVINCIA":"IQUIQUE","COD_COMUNA":1107,"COMUNA":"ALTO HOSPICIO","DIRECCION":"JUANITA FERNANDEZ","NUMERO_DI":3199,"LUGAR_REFE":"","LATITUD":-20.283158,"LONGITUD":-70.094432}},
{"type":"Feature","geometry":{"type":"Point","coordinates":[-73.818511,-41.863089]},"properties":{"AÑO":2020,"COD_INST":46,"TIPO_INST":"Universidades Privadas","NOMBRE_INS":"UNIVERSIDAD DE ACONCAGUA","NOMBRE_INM":"SEDE ANCUD","COD_REGION":10,"REGIÓN":"REGIÓN DE LOS LAGOS","COD_PROVIN":102,"PROVINCIA":"CHILOÉ","COD_COMUNA":10202,"COMUNA":"ANCUD","DIRECCION":"ANTONIO BURR","NUMERO_DI":485,"LUGAR_REFE":"","LATITUD":-41.863089,"LONGITUD":-73.818511}},
{"type":"Feature","geometry":{"type":"Point","coordinates":[-73.825593,-41.86958]},"properties":{"AÑO":2020,"COD_INST":84,"TIPO_INST":"Universidades Estatales CRUCH","NOMBRE_INS":"UNIVERSIDAD DE LOS LAGOS","NOMBRE_INM":"CHILOE - ANCUD 1","COD_REGION":10,"REGIÓN":"REGIÓN DE LOS LAGOS","COD_PROVIN":102,"PROVINCIA":"CHILOÉ","COD_COMUNA":10202,"COMUNA":"ANCUD","DIRECCION":"ELEUTERIO RAMIREZ","NUMERO_DI":348,"LUGAR_REFE":"","LATITUD":-41.86958,"LONGITUD":-73.825593}},
{"type":"Feature","geometry":{"type":"Point","coordinates":[-73.825215,-41.870002]},"properties":{"AÑO":2020,"COD_INST":84,"TIPO_INST":"Universidades Estatales CRUCH","NOMBRE_INS":"UNIVERSIDAD DE LOS LAGOS","NOMBRE_INM":"CHILOE - ANCUD 2","COD_REGION":10,"REGIÓN":"REGIÓN DE LOS LAGOS","COD_PROVIN":102,"PROVINCIA":"CHILOÉ","COD_COMUNA":10202,"COMUNA":"ANCUD","DIRECCION":"ELEUTERIO RAMIREZ","NUMERO_DI":375,"LUGAR_REFE":"","LATITUD":-41.870002,"LONGITUD":-73.825215}},
{"type":"Feature","geometry":{"type":"Point","coordinates":[-72.702747,-37.800363]},"properties":{"AÑO":2020,"COD_INST":76,"TIPO_INST":"Universidades Estatales CRUCH","NOMBRE_INS":"UNIVERSIDAD DE LA FRONTERA","NOMBRE_INM":"CAMPUS MALLECO","COD_REGION":9,"REGIÓN":"REGIÓN DE LA ARAUCANÍA","COD_PROVIN":92,"PROVINCIA":"MALLECO","COD_COMUNA":9201,"COMUNA":"ANGOL","DIRECCION":"AVENIDA BERNARDO O'HIGGINS","NUMERO_DI":50,"LUGAR_REFE":"","LATITUD":-37.800363,"LONGITUD":-72.702747}},
{"type":"Feature","geometry":{"type":"Point","coordinates":[-72.702747,-37.800363]},"properties":{"AÑO":2020,"COD_INST":633,"TIPO_INST":"Centros de Formación Técnica","NOMBRE_INS":"CFT TEODORO WICKEL KLUWEN","NOMBRE_INM":"SEDE ANGOL","COD_REGION":9,"REGIÓN":"REGIÓN DE LA ARAUCANÍA","COD_PROVIN":92,"PROVINCIA":"MALLECO","COD_COMUNA":9201,"COMUNA":"ANGOL","DIRECCION":"AVENIDA BERNARDO O'HIGGINS","NUMERO_DI":50,"LUGAR_REFE":"","LATITUD":-37.800363,"LONGITUD":-72.702747}},
{"type":"Feature","geometry":{"type":"Point","coordinates":[-70.40047,-23.560032]},"properties":{"AÑO":2020,"COD_INST":54,"TIPO_INST":"Universidades Privadas","NOMBRE_INS":"UNIVERSIDAD TECNOLÓGICA DE CHILE INACAP","NOMBRE_INM":"INACAP ANTOFAGASTA","COD_REGION":2,"REGIÓN":"REGIÓN DE ANTOFAGASTA","COD_PROVIN":21,"PROVINCIA":"ANTOFAGASTA","COD_COMUNA":2101,"COMUNA":"ANTOFAGASTA","DIRECCION":"EDMUNDO PEREZ ZUJOVIC","NUMERO_DI":11092,"LUGAR_REFE":"","LATITUD":-23.560032,"LONGITUD":-70.40047}},
{"type":"Feature","geometry":{"type":"Point","coordinates":[-70.40047,-23.560032]},"properties":{"AÑO":2020,"COD_INST":100,"TIPO_INST":"Institutos Profesionales","NOMBRE_INS":"IP INACAP","NOMBRE_INM":"INACAP ANTOFAGASTA","COD_REGION":2,"REGIÓN":"REGIÓN DE ANTOFAGASTA","COD_PROVIN":21,"PROVINCIA":"ANTOFAGASTA","COD_COMUNA":2101,"COMUNA":"ANTOFAGASTA","DIRECCION":"EDMUNDO PEREZ ZUJOVIC","NUMERO_DI":11092,"LUGAR_REFE":"","LATITUD":-23.560032,"LONGITUD":-70.40047}},
{"type":"Feature","geometry":{"type":"Point","coordinates":[-70.40047,-23.560032]},"properties":{"AÑO":2020,"COD_INST":430,"TIPO_INST":"Centros de Formación Técnica","NOMBRE_INS":"CFT INACAP","NOMBRE_INM":"INACAP ANTOFAGASTA","COD_REGION":2,"REGIÓN":"REGIÓN DE ANTOFAGASTA","COD_PROVIN":21,"PROVINCIA":"ANTOFAGASTA","COD_COMUNA":2101,"COMUNA":"ANTOFAGASTA","DIRECCION":"EDMUNDO PEREZ ZUJOVIC","NUMERO_DI":11092,"LUGAR_REFE":"","LATITUD":-23.560032,"LONGITUD":-70.40047}},
{"type":"Feature","geometry":{"type":"Point","coordinates":[-70.3854733208956,-23.6165393458905]},"properties":{"AÑO":2020,"COD_INST":73,"TIPO_INST":"Universidades Estatales CRUCH","NOMBRE_INS":"UNIVERSIDAD DE ANTOFAGASTA","NOMBRE_INM":"UNIVERSIDAD DE ANTOFAGASTA","COD_REGION":2,"REGIÓN":"REGIÓN DE ANTOFAGASTA","COD_PROVIN":21,"PROVINCIA":"ANTOFAGASTA","COD_COMUNA":2101,"COMUNA":"ANTOFAGASTA","DIRECCION":"AZAPA","NUMERO_DI":5935,"LUGAR_REFE":"","LATITUD":-23.616539,"LONGITUD":-70.385473}},
{"type":"Feature","geometry":{"type":"Point","coordinates":[-70.3859079998267,-23.6168640755797]},"properties":{"AÑO":2020,"COD_INST":73,"TIPO_INST":"Universidades Estatales CRUCH","NOMBRE_INS":"UNIVERSIDAD DE ANTOFAGASTA","NOMBRE_INM":"UNIVERSIDAD DE ANTOFAGASTA","COD_REGION":2,"REGIÓN":"REGIÓN DE ANTOFAGASTA","COD_PROVIN":21,"PROVINCIA":"ANTOFAGASTA","COD_COMUNA":2101,"COMUNA":"ANTOFAGASTA","DIRECCION":"TERRAZA SEGUNDO","NUMERO_DI":0,"LUGAR_REFE":"TERRAZA SEGUNDO PISO HOSPITAL REGIONAL","LATITUD":-23.616864,"LONGITUD":-70.385908}},
{"type":"Feature","geometry":{"type":"Point","coordinates":[-70.393914,-23.634775]},"properties":{"AÑO":2020,"COD_INST":13,"TIPO_INST":"Universidades Privadas","NOMBRE_INS":"UNIVERSIDAD SANTO TOMÁS","NOMBRE_INM":"","COD_REGION":2,"REGIÓN":"REGIÓN DE ANTOFAGASTA","COD_PROVIN":21,"PROVINCIA":"ANTOFAGASTA","COD_COMUNA":2101,"COMUNA":"ANTOFAGASTA","DIRECCION":"IQUIQUE","NUMERO_DI":3991,"LUGAR_REFE":"CON QUITO","LATITUD":-23.634775,"LONGITUD":-70.393914}},
{"type":"Feature","geometry":{"type":"Point","coordinates":[-70.393914,-23.634775]},"properties":{"AÑO":2020,"COD_INST":116,"TIPO_INST":"Institutos Profesionales","NOMBRE_INS":"IP SANTO TOMÁS","NOMBRE_INM":"","COD_REGION":2,"REGIÓN":"REGIÓN DE ANTOFAGASTA","COD_PROVIN":21,"PROVINCIA":"ANTOFAGASTA","COD_COMUNA":2101,"COMUNA":"ANTOFAGASTA","DIRECCION":"IQUIQUE","NUMERO_DI":3991,"LUGAR_REFE":"CON QUITO","LATITUD":-23.634775,"LONGITUD":-70.393914}},
{"type":"Feature","geometry":{"type":"Point","coordinates":[-70.393914,-23.634775]},"properties":{"AÑO":2020,"COD_INST":260,"TIPO_INST":"Centros de Formación Técnica","NOMBRE_INS":"CFT SANTO TOMÁS","NOMBRE_INM":"","COD_REGION":2,"REGIÓN":"REGIÓN DE ANTOFAGASTA","COD_PROVIN":21,"PROVINCIA":"ANTOFAGASTA","COD_COMUNA":2101,"COMUNA":"ANTOFAGASTA","DIRECCION":"IQUIQUE","NUMERO_DI":3991,"LUGAR_REFE":"CON QUITO","LATITUD":-23.634775,"LONGITUD":-70.393914}},
{"type":"Feature","geometry":{"type":"Point","coordinates":[-70.394567,-23.64571]},"properties":{"AÑO":2020,"COD_INST":81,"TIPO_INST":"Universidades Estatales CRUCH","NOMBRE_INS":"UNIVERSIDAD ARTURO PRAT","NOMBRE_INM":"CENTRO ANTOFAGASTA","COD_REGION":2,"REGIÓN":"REGIÓN DE ANTOFAGASTA","COD_PROVIN":21,"PROVINCIA":"ANTOFAGASTA","COD_COMUNA":2101,"COMUNA":"ANTOFAGASTA","DIRECCION":"LATORRE","NUMERO_DI":2901,"LUGAR_REFE":"2923","LATITUD":-23.64571,"LONGITUD":-70.394567}},
{"type":"Feature","geometry":{"type":"Point","coordinates":[-70.399424,-23.648166]},"properties":{"AÑO":2020,"COD_INST":143,"TIPO_INST":"Institutos Profesionales","NOMBRE_INS":"IP AIEP","NOMBRE_INM":"SEDE ANTOFAGASTA SAN MARTIN 2","COD_REGION":2,"REGIÓN":"REGIÓN DE ANTOFAGASTA","COD_PROVIN":21,"PROVINCIA":"ANTOFAGASTA","COD_COMUNA":2101,"COMUNA":"ANTOFAGASTA","DIRECCION":"SAN MARTIN","NUMERO_DI":2413,"LUGAR_REFE":"","LATITUD":-23.648166,"LONGITUD":-70.399424}},
{"type":"Feature","geometry":{"type":"Point","coordinates":[-70.400313,-23.648646]},"properties":{"AÑO":2020,"COD_INST":143,"TIPO_INST":"Institutos Profesionales","NOMBRE_INS":"IP AIEP","NOMBRE_INM":"SEDE ANTOFAGASTA SAN MARTIN 1","COD_REGION":2,"REGIÓN":"REGIÓN DE ANTOFAGASTA","COD_PROVIN":21,"PROVINCIA":"ANTOFAGASTA","COD_COMUNA":2101,"COMUNA":"ANTOFAGASTA","DIRECCION":"SAN MARTIN","NUMERO_DI":2351,"LUGAR_REFE":"","LATITUD":-23.648646,"LONGITUD":-70.400313}},
{"type":"Feature","geometry":{"type":"Point","coordinates":[-70.397597,-23.64947]},"properties":{"AÑO":2020,"COD_INST":73,"TIPO_INST":"Universidades Estatales CRUCH","NOMBRE_INS":"UNIVERSIDAD DE ANTOFAGASTA","NOMBRE_INM":"UNIVERSIDAD DE ANTOFAGASTA","COD_REGION":2,"REGIÓN":"REGIÓN DE ANTOFAGASTA","COD_PROVIN":21,"PROVINCIA":"ANTOFAGASTA","COD_COMUNA":2101,"COMUNA":"ANTOFAGASTA","DIRECCION":"CONDELL","NUMERO_DI":2495,"LUGAR_REFE":"","LATITUD":-23.64947,"LONGITUD":-70.397597}},
{"type":"Feature","geometry":{"type":"Point","coordinates":[-70.3948491044279,-23.6503558284469]},"properties":{"AÑO":2020,"COD_INST":9,"TIPO_INST":"Universidades Privadas","NOMBRE_INS":"UNIVERSIDAD PEDRO DE VALDIVIA","NOMBRE_INM":"CAMPUS OSSA","COD_REGION":2,"REGIÓN":"REGIÓN DE ANTOFAGASTA","COD_PROVIN":21,"PROVINCIA":"ANTOFAGASTA","COD_COMUNA":2101,"COMUNA":"ANTOFAGASTA","DIRECCION":"AVENIDA ARTURO PRAT","NUMERO_DI":801,"LUGAR_REFE":"AL 819","LATITUD":-23.650356,"LONGITUD":-70.394849}},
{"type":"Feature","geometry":{"type":"Point","coordinates":[-70.400558,-23.65329]},"properties":{"AÑO":2020,"COD_INST":9,"TIPO_INST":"Universidades Privadas","NOMBRE_INS":"UNIVERSIDAD PEDRO DE VALDIVIA","NOMBRE_INM":"CAMPUS MATTA","COD_REGION":2,"REGIÓN":"REGIÓN DE ANTOFAGASTA","COD_PROVIN":21,"PROVINCIA":"ANTOFAGASTA","COD_COMUNA":2101,"COMUNA":"ANTOFAGASTA","DIRECCION":"AVENIDA MATTA","NUMERO_DI":2065,"LUGAR_REFE":"PISO 1, 4 Y 5","LATITUD":-23.65329,"LONGITUD":-70.400558}},
{"type":"Feature","geometry":{"type":"Point","coordinates":[-70.400558,-23.65329]},"properties":{"AÑO":2020,"COD_INST":9,"TIPO_INST":"Universidades Privadas","NOMBRE_INS":"UNIVERSIDAD PEDRO DE VALDIVIA","NOMBRE_INM":"CAMPUS MATTA","COD_REGION":2,"REGIÓN":"REGIÓN DE ANTOFAGASTA","COD_PROVIN":21,"PROVINCIA":"ANTOFAGASTA","COD_COMUNA":2101,"COMUNA":"ANTOFAGASTA","DIRECCION":"AVENIDA MATTA","NUMERO_DI":2065,"LUGAR_REFE":"PISO 2, 3 Y 6","LATITUD":-23.65329,"LONGITUD":-70.400558}},
{"type":"Feature","geometry":{"type":"Point","coordinates":[-70.400378,-23.653494]},"properties":{"AÑO":2020,"COD_INST":305,"TIPO_INST":"Centros de Formación Técnica","NOMBRE_INS":"CFT ESANE DEL NORTE","NOMBRE_INM":"CASA CENTRAL","COD_REGION":2,"REGIÓN":"REGIÓN DE ANTOFAGASTA","COD_PROVIN":21,"PROVINCIA":"ANTOFAGASTA","COD_COMUNA":2101,"COMUNA":"ANTOFAGASTA","DIRECCION":"MANUEL ANTONIO MATTA","NUMERO_DI":2052,"LUGAR_REFE":"","LATITUD":-23.653494,"LONGITUD":-70.400378}},
{"type":"Feature","geometry":{"type":"Point","coordinates":[-70.395909,-23.658152]},"properties":{"AÑO":2020,"COD_INST":73,"TIPO_INST":"Universidades Estatales CRUCH","NOMBRE_INS":"UNIVERSIDAD DE ANTOFAGASTA","NOMBRE_INM":"UNIVERSIDAD DE ANTOFAGASTA","COD_REGION":2,"REGIÓN":"REGIÓN DE ANTOFAGASTA","COD_PROVIN":21,"PROVINCIA":"ANTOFAGASTA","COD_COMUNA":2101,"COMUNA":"ANTOFAGASTA","DIRECCION":"AVENIDA ARGENTINA","NUMERO_DI":2000,"LUGAR_REFE":"","LATITUD":-23.658152,"LONGITUD":-70.395909}},
{"type":"Feature","geometry":{"type":"Point","coordinates":[-70.4012,-23.662386]},"properties":{"AÑO":2020,"COD_INST":176,"TIPO_INST":"Institutos Profesionales","NOMBRE_INS":"IP VALLE CENTRAL","NOMBRE_INM":"OFICINA ANTOFAGASTA","COD_REGION":2,"REGIÓN":"REGIÓN DE ANTOFAGASTA","COD_PROVIN":21,"PROVINCIA":"ANTOFAGASTA","COD_COMUNA":2101,"COMUNA":"ANTOFAGASTA","DIRECCION":"ANTONINO TORO","NUMERO_DI":878,"LUGAR_REFE":"","LATITUD":-23.662386,"LONGITUD":-70.4012}},
{"type":"Feature","geometry":{"type":"Point","coordinates":[-70.40241,-23.662425]},"properties":{"AÑO":2020,"COD_INST":73,"TIPO_INST":"Universidades Estatales CRUCH","NOMBRE_INS":"UNIVERSIDAD DE ANTOFAGASTA","NOMBRE_INM":"UNIVERSIDAD DE ANTOFAGASTA","COD_REGION":2,"REGIÓN":"REGIÓN DE ANTOFAGASTA","COD_PROVIN":21,"PROVINCIA":"ANTOFAGASTA","COD_COMUNA":2101,"COMUNA":"ANTOFAGASTA","DIRECCION":"ANTONINO TORO","NUMERO_DI":851,"LUGAR_REFE":"","LATITUD":-23.662425,"LONGITUD":-70.40241}},
{"type":"Feature","geometry":{"type":"Point","coordinates":[-70.4052329704198,-23.6690556964463]},"properties":{"AÑO":2020,"COD_INST":73,"TIPO_INST":"Universidades Estatales CRUCH","NOMBRE_INS":"UNIVERSIDAD DE ANTOFAGASTA","NOMBRE_INM":"UNIVERSIDAD DE ANTOFAGASTA","COD_REGION":2,"REGIÓN":"REGIÓN DE ANTOFAGASTA","COD_PROVIN":21,"PROVINCIA":"ANTOFAGASTA","COD_COMUNA":2101,"COMUNA":"ANTOFAGASTA","DIRECCION":"AVENIDA ANGAMOS","NUMERO_DI":601,"LUGAR_REFE":"","LATITUD":-23.669056,"LONGITUD":-70.405233}},
{"type":"Feature","geometry":{"type":"Point","coordinates":[-70.410254,-23.681798]},"properties":{"AÑO":2020,"COD_INST":91,"TIPO_INST":"Universidades Privadas CRUCH","NOMBRE_INS":"UNIVERSIDAD CATÓLICA DEL NORTE","NOMBRE_INM":"CAMPUS ANGAMOS","COD_REGION":2,"REGIÓN":"REGIÓN DE ANTOFAGASTA","COD_PROVIN":21,"PROVINCIA":"ANTOFAGASTA","COD_COMUNA":2101,"COMUNA":"ANTOFAGASTA","DIRECCION":"ANGAMOS","NUMERO_DI":610,"LUGAR_REFE":"","LATITUD":-23.681798,"LONGITUD":-70.410254}},
{"type":"Feature","geometry":{"type":"Point","coordinates":[-70.412755,-23.68304]},"properties":{"AÑO":2020,"COD_INST":456,"TIPO_INST":"Centros de Formación Técnica","NOMBRE_INS":"CFT CEDUC - UCN","NOMBRE_INM":"SEDE ANTOFAGASTA","COD_REGION":2,"REGIÓN":"REGIÓN DE ANTOFAGASTA","COD_PROVIN":21,"PROVINCIA":"ANTOFAGASTA","COD_COMUNA":2101,"COMUNA":"ANTOFAGASTA","DIRECCION":"RAMON FREIRE","NUMERO_DI":1416,"LUGAR_REFE":"","LATITUD":-23.68304,"LONGITUD":-70.412755}},
{"type":"Feature","geometry":{"type":"Point","coordinates":[-70.422029,-23.7003]},"properties":{"AÑO":2020,"COD_INST":73,"TIPO_INST":"Universidades Estatales CRUCH","NOMBRE_INS":"UNIVERSIDAD DE ANTOFAGASTA","NOMBRE_INM":"UNIVERSIDAD DE ANTOFAGASTA","COD_REGION":2,"REGIÓN":"REGIÓN DE ANTOFAGASTA","COD_PROVIN":21,"PROVINCIA":"ANTOFAGASTA","COD_COMUNA":2101,"COMUNA":"ANTOFAGASTA","DIRECCION":"AVENIDA UNIVERSIDAD ANTOFAGASTA","NUMERO_DI":2800,"LUGAR_REFE":"","LATITUD":-23.7003,"LONGITUD":-70.422029}},
{"type":"Feature","geometry":{"type":"Point","coordinates":[-73.3173260022678,-37.2441342700477]},"properties":{"AÑO":2020,"COD_INST":113,"TIPO_INST":"Institutos Profesionales","NOMBRE_INS":"IP IPG","NOMBRE_INM":"A5","COD_REGION":8,"REGIÓN":"REGIÓN DEL BIOBÍO","COD_PROVIN":82,"PROVINCIA":"ARAUCO","COD_COMUNA":8202,"COMUNA":"ARAUCO","DIRECCION":"COCHRANE","NUMERO_DI":324,"LUGAR_REFE":"","LATITUD":-37.244134,"LONGITUD":-73.317326}},
{"type":"Feature","geometry":{"type":"Point","coordinates":[-73.315238,-37.245505]},"properties":{"AÑO":2020,"COD_INST":113,"TIPO_INST":"Institutos Profesionales","NOMBRE_INS":"IP IPG","NOMBRE_INM":"A3","COD_REGION":8,"REGIÓN":"REGIÓN DEL BIOBÍO","COD_PROVIN":82,"PROVINCIA":"ARAUCO","COD_COMUNA":8202,"COMUNA":"ARAUCO","DIRECCION":"CONDELL","NUMERO_DI":277,"LUGAR_REFE":"","LATITUD":-37.245505,"LONGITUD":-73.315238}},
{"type":"Feature","geometry":{"type":"Point","coordinates":[-73.314971,-37.245525]},"properties":{"AÑO":2020,"COD_INST":113,"TIPO_INST":"Institutos Profesionales","NOMBRE_INS":"IP IPG","NOMBRE_INM":"A1","COD_REGION":8,"REGIÓN":"REGIÓN DEL BIOBÍO","COD_PROVIN":82,"PROVINCIA":"ARAUCO","COD_COMUNA":8202,"COMUNA":"ARAUCO","DIRECCION":"CONDELL","NUMERO_DI":263,"LUGAR_REFE":"","LATITUD":-37.245525,"LONGITUD":-73.314971}},
{"type":"Feature","geometry":{"type":"Point","coordinates":[-73.295334,-37.247151]},"properties":{"AÑO":2020,"COD_INST":111,"TIPO_INST":"Institutos Profesionales","NOMBRE_INS":"IP DUOC UC","NOMBRE_INM":"ARAUCO","COD_REGION":8,"REGIÓN":"REGIÓN DEL BIOBÍO","COD_PROVIN":82,"PROVINCIA":"ARAUCO","COD_COMUNA":8202,"COMUNA":"ARAUCO","DIRECCION":"CAMINO A CARAMPAGNE","NUMERO_DI":1060,"LUGAR_REFE":"","LATITUD":-37.247151,"LONGITUD":-73.295334}},
{"type":"Feature","geometry":{"type":"Point","coordinates":[-70.295118,-18.458216]},"properties":{"AÑO":2020,"COD_INST":81,"TIPO_INST":"Universidades Estatales CRUCH","NOMBRE_INS":"UNIVERSIDAD ARTURO PRAT","NOMBRE_INM":"CENTRO ARICA","COD_REGION":15,"REGIÓN":"REGIÓN DE ARICA Y PARINACOTA","COD_PROVIN":151,"PROVINCIA":"ARICA","COD_COMUNA":15101,"COMUNA":"ARICA","DIRECCION":"AVENIDA SANTA MARIA","NUMERO_DI":2998,"LUGAR_REFE":"","LATITUD":-18.458216,"LONGITUD":-70.295118}},
{"type":"Feature","geometry":{"type":"Point","coordinates":[-70.302749,-18.469031]},"properties":{"AÑO":2020,"COD_INST":54,"TIPO_INST":"Universidades Privadas","NOMBRE_INS":"UNIVERSIDAD TECNOLÓGICA DE CHILE INACAP","NOMBRE_INM":"INACAP ARICA","COD_REGION":15,"REGIÓN":"REGIÓN DE ARICA Y PARINACOTA","COD_PROVIN":151,"PROVINCIA":"ARICA","COD_COMUNA":15101,"COMUNA":"ARICA","DIRECCION":"AVENIDA SANTA MARIA","NUMERO_DI":2190,"LUGAR_REFE":"","LATITUD":-18.469031,"LONGITUD":-70.302749}},
{"type":"Feature","geometry":{"type":"Point","coordinates":[-70.302749,-18.469031]},"properties":{"AÑO":2020,"COD_INST":100,"TIPO_INST":"Institutos Profesionales","NOMBRE_INS":"IP INACAP","NOMBRE_INM":"INACAP ARICA","COD_REGION":15,"REGIÓN":"REGIÓN DE ARICA Y PARINACOTA","COD_PROVIN":151,"PROVINCIA":"ARICA","COD_COMUNA":15101,"COMUNA":"ARICA","DIRECCION":"AVENIDA SANTA MARIA","NUMERO_DI":2190,"LUGAR_REFE":"","LATITUD":-18.469031,"LONGITUD":-70.302749}},
{"type":"Feature","geometry":{"type":"Point","coordinates":[-70.302749,-18.469031]},"properties":{"AÑO":2020,"COD_INST":430,"TIPO_INST":"Centros de Formación Técnica","NOMBRE_INS":"CFT INACAP","NOMBRE_INM":"INACAP ARICA","COD_REGION":15,"REGIÓN":"REGIÓN DE ARICA Y PARINACOTA","COD_PROVIN":151,"PROVINCIA":"ARICA","COD_COMUNA":15101,"COMUNA":"ARICA","DIRECCION":"AVENIDA SANTA MARIA","NUMERO_DI":2190,"LUGAR_REFE":"","LATITUD":-18.469031,"LONGITUD":-70.302749}},
{"type":"Feature","geometry":{"type":"Point","coordinates":[-70.303431,-18.46976]},"properties":{"AÑO":2020,"COD_INST":54,"TIPO_INST":"Universidades Privadas","NOMBRE_INS":"UNIVERSIDAD TECNOLÓGICA DE CHILE INACAP","NOMBRE_INM":"INACAP ARICA EDIFICIO ESQUINA","COD_REGION":15,"REGIÓN":"REGIÓN DE ARICA Y PARINACOTA","COD_PROVIN":151,"PROVINCIA":"ARICA","COD_COMUNA":15101,"COMUNA":"ARICA","DIRECCION":"AVENIDA SANTA MARIA","NUMERO_DI":2176,"LUGAR_REFE":"","LATITUD":-18.46976,"LONGITUD":-70.303431}},
{"type":"Feature","geometry":{"type":"Point","coordinates":[-70.303431,-18.46976]},"properties":{"AÑO":2020,"COD_INST":100,"TIPO_INST":"Institutos Profesionales","NOMBRE_INS":"IP INACAP","NOMBRE_INM":"INACAP ARICA EDIFICIO ESQUINA","COD_REGION":15,"REGIÓN":"REGIÓN DE ARICA Y PARINACOTA","COD_PROVIN":151,"PROVINCIA":"ARICA","COD_COMUNA":15101,"COMUNA":"ARICA","DIRECCION":"AVENIDA SANTA MARIA","NUMERO_DI":2176,"LUGAR_REFE":"","LATITUD":-18.46976,"LONGITUD":-70.303431}},
{"type":"Feature","geometry":{"type":"Point","coordinates":[-70.303431,-18.46976]},"properties":{"AÑO":2020,"COD_INST":430,"TIPO_INST":"Centros de Formación Técnica","NOMBRE_INS":"CFT INACAP","NOMBRE_INM":"INACAP ARICA EDIFICIO ESQUINA","COD_REGION":15,"REGIÓN":"REGIÓN DE ARICA Y PARINACOTA","COD_PROVIN":151,"PROVINCIA":"ARICA","COD_COMUNA":15101,"COMUNA":"ARICA","DIRECCION":"AVENIDA SANTA MARIA","NUMERO_DI":2176,"LUGAR_REFE":"","LATITUD":-18.46976,"LONGITUD":-70.303431}},
{"type":"Feature","geometry":{"type":"Point","coordinates":[-70.313218,-18.472256]},"properties":{"AÑO":2020,"COD_INST":80,"TIPO_INST":"Universidades Estatales CRUCH","NOMBRE_INS":"UNIVERSIDAD DE TARAPACÁ","NOMBRE_INM":"CAMPUS VELASQUEZ","COD_REGION":15,"REGIÓN":"REGIÓN DE ARICA Y PARINACOTA","COD_PROVIN":151,"PROVINCIA":"ARICA","COD_COMUNA":15101,"COMUNA":"ARICA","DIRECCION":"AVENIDA GENERAL VELÁSQUEZ","NUMERO_DI":1775,"LUGAR_REFE":"","LATITUD":-18.472256,"LONGITUD":-70.313218}},
{"type":"Feature","geometry":{"type":"Point","coordinates":[-70.313218,-18.472256]},"properties":{"AÑO":2020,"COD_INST":536,"TIPO_INST":"Centros de Formación Técnica","NOMBRE_INS":"CFT DE TARAPACÁ","NOMBRE_INM":"CAMPUS VELASQUEZ","COD_REGION":15,"REGIÓN":"REGIÓN DE ARICA Y PARINACOTA","COD_PROVIN":151,"PROVINCIA":"ARICA","COD_COMUNA":15101,"COMUNA":"ARICA","DIRECCION":"AVENIDA GENERAL VELASQUEZ","NUMERO_DI":1775,"LUGAR_REFE":"","LATITUD":-18.472256,"LONGITUD":-70.313218}},
{"type":"Feature","geometry":{"type":"Point","coordinates":[-70.321554,-18.480705]},"properties":{"AÑO":2020,"COD_INST":80,"TIPO_INST":"Universidades Estatales CRUCH","NOMBRE_INS":"UNIVERSIDAD DE TARAPACÁ","NOMBRE_INM":"MUSEO DE SITIO COLON 10","COD_REGION":15,"REGIÓN":"REGIÓN DE ARICA Y PARINACOTA","COD_PROVIN":151,"PROVINCIA":"ARICA","COD_COMUNA":15101,"COMUNA":"ARICA","DIRECCION":"COLON","NUMERO_DI":10,"LUGAR_REFE":"","LATITUD":-18.480705,"LONGITUD":-70.321554}},
{"type":"Feature","geometry":{"type":"Point","coordinates":[-70.30414,-18.481625]},"properties":{"AÑO":2020,"COD_INST":536,"TIPO_INST":"Centros de Formación Técnica","NOMBRE_INS":"CFT DE TARAPACÁ","NOMBRE_INM":"CENTRO COMUNITARIO DE SALUD PARA EL ADULTO MAYOR Y VACUNATORIO CFT","COD_REGION":15,"REGIÓN":"REGIÓN DE ARICA Y PARINACOTA","COD_PROVIN":151,"PROVINCIA":"ARICA","COD_COMUNA":15101,"COMUNA":"ARICA","DIRECCION":"PEDRO AGUIRRE CERDA","NUMERO_DI":1328,"LUGAR_REFE":"MAIPU ORIENTE","LATITUD":-18.481625,"LONGITUD":-70.30414}},
{"type":"Feature","geometry":{"type":"Point","coordinates":[-70.310143,-18.482967]},"properties":{"AÑO":2020,"COD_INST":13,"TIPO_INST":"Universidades Privadas","NOMBRE_INS":"UNIVERSIDAD SANTO TOMÁS","NOMBRE_INM":"","COD_REGION":15,"REGIÓN":"REGIÓN DE ARICA Y PARINACOTA","COD_PROVIN":151,"PROVINCIA":"ARICA","COD_COMUNA":15101,"COMUNA":"ARICA","DIRECCION":"LAUTARO","NUMERO_DI":640,"LUGAR_REFE":"","LATITUD":-18.482967,"LONGITUD":-70.310143}},
{"type":"Feature","geometry":{"type":"Point","coordinates":[-70.310143,-18.482967]},"properties":{"AÑO":2020,"COD_INST":116,"TIPO_INST":"Institutos Profesionales","NOMBRE_INS":"IP SANTO TOMÁS","NOMBRE_INM":"","COD_REGION":15,"REGIÓN":"REGIÓN DE ARICA Y PARINACOTA","COD_PROVIN":151,"PROVINCIA":"ARICA","COD_COMUNA":15101,"COMUNA":"ARICA","DIRECCION":"LAUTARO","NUMERO_DI":640,"LUGAR_REFE":"","LATITUD":-18.482967,"LONGITUD":-70.310143}},
{"type":"Feature","geometry":{"type":"Point","coordinates":[-70.310143,-18.482967]},"properties":{"AÑO":2020,"COD_INST":260,"TIPO_INST":"Centros de Formación Técnica","NOMBRE_INS":"CFT SANTO TOMÁS","NOMBRE_INM":"","COD_REGION":15,"REGIÓN":"REGIÓN DE ARICA Y PARINACOTA","COD_PROVIN":151,"PROVINCIA":"ARICA","COD_COMUNA":15101,"COMUNA":"ARICA","DIRECCION":"LAUTARO","NUMERO_DI":640,"LUGAR_REFE":"","LATITUD":-18.482967,"LONGITUD":-70.310143}},
{"type":"Feature","geometry":{"type":"Point","coordinates":[-70.310314,-18.483376]},"properties":{"AÑO":2020,"COD_INST":260,"TIPO_INST":"Centros de Formación Técnica","NOMBRE_INS":"CFT SANTO TOMÁS","NOMBRE_INM":"","COD_REGION":15,"REGIÓN":"REGIÓN DE ARICA Y PARINACOTA","COD_PROVIN":151,"PROVINCIA":"ARICA","COD_COMUNA":15101,"COMUNA":"ARICA","DIRECCION":"18 DE SEPTIEMBRE","NUMERO_DI":1195,"LUGAR_REFE":"","LATITUD":-18.483376,"LONGITUD":-70.310314}},
{"type":"Feature","geometry":{"type":"Point","coordinates":[-70.310382,-18.483403]},"properties":{"AÑO":2020,"COD_INST":13,"TIPO_INST":"Universidades Privadas","NOMBRE_INS":"UNIVERSIDAD SANTO TOMÁS","NOMBRE_INM":"","COD_REGION":15,"REGIÓN":"REGIÓN DE ARICA Y PARINACOTA","COD_PROVIN":151,"PROVINCIA":"ARICA","COD_COMUNA":15101,"COMUNA":"ARICA","DIRECCION":"18 DE SEPTIEMBRE","NUMERO_DI":1191,"LUGAR_REFE":"","LATITUD":-18.483403,"LONGITUD":-70.310382}},
{"type":"Feature","geometry":{"type":"Point","coordinates":[-70.310382,-18.483403]},"properties":{"AÑO":2020,"COD_INST":116,"TIPO_INST":"Institutos Profesionales","NOMBRE_INS":"IP SANTO TOMÁS","NOMBRE_INM":"","COD_REGION":15,"REGIÓN":"REGIÓN DE ARICA Y PARINACOTA","COD_PROVIN":151,"PROVINCIA":"ARICA","COD_COMUNA":15101,"COMUNA":"ARICA","DIRECCION":"18 DE SEPTIEMBRE","NUMERO_DI":1191,"LUGAR_REFE":"","LATITUD":-18.483403,"LONGITUD":-70.310382}},
{"type":"Feature","geometry":{"type":"Point","coordinates":[-70.310382,-18.483403]},"properties":{"AÑO":2020,"COD_INST":260,"TIPO_INST":"Centros de Formación Técnica","NOMBRE_INS":"CFT SANTO TOMÁS","NOMBRE_INM":"","COD_REGION":15,"REGIÓN":"REGIÓN DE ARICA Y PARINACOTA","COD_PROVIN":151,"PROVINCIA":"ARICA","COD_COMUNA":15101,"COMUNA":"ARICA","DIRECCION":"18 DE SEPTIEMBRE","NUMERO_DI":1191,"LUGAR_REFE":"","LATITUD":-18.483403,"LONGITUD":-70.310382}},
{"type":"Feature","geometry":{"type":"Point","coordinates":[-70.310138,-18.483435]},"properties":{"AÑO":2020,"COD_INST":13,"TIPO_INST":"Universidades Privadas","NOMBRE_INS":"UNIVERSIDAD SANTO TOMÁS","NOMBRE_INM":"","COD_REGION":15,"REGIÓN":"REGIÓN DE ARICA Y PARINACOTA","COD_PROVIN":151,"PROVINCIA":"ARICA","COD_COMUNA":15101,"COMUNA":"ARICA","DIRECCION":"18 DE SEPTIEMBRE","NUMERO_DI":1231,"LUGAR_REFE":"","LATITUD":-18.483435,"LONGITUD":-70.310138}},
{"type":"Feature","geometry":{"type":"Point","coordinates":[-70.310138,-18.483435]},"properties":{"AÑO":2020,"COD_INST":116,"TIPO_INST":"Institutos Profesionales","NOMBRE_INS":"IP SANTO TOMÁS","NOMBRE_INM":"","COD_REGION":15,"REGIÓN":"REGIÓN DE ARICA Y PARINACOTA","COD_PROVIN":151,"PROVINCIA":"ARICA","COD_COMUNA":15101,"COMUNA":"ARICA","DIRECCION":"18 DE SEPTIEMBRE","NUMERO_DI":1231,"LUGAR_REFE":"","LATITUD":-18.483435,"LONGITUD":-70.310138}},
{"type":"Feature","geometry":{"type":"Point","coordinates":[-70.310138,-18.483435]},"properties":{"AÑO":2020,"COD_INST":260,"TIPO_INST":"Centros de Formación Técnica","NOMBRE_INS":"CFT SANTO TOMÁS","NOMBRE_INM":"","COD_REGION":15,"REGIÓN":"REGIÓN DE ARICA Y PARINACOTA","COD_PROVIN":151,"PROVINCIA":"ARICA","COD_COMUNA":15101,"COMUNA":"ARICA","DIRECCION":"18 DE SEPTIEMBRE","NUMERO_DI":1231,"LUGAR_REFE":"","LATITUD":-18.483435,"LONGITUD":-70.310138}},
{"type":"Feature","geometry":{"type":"Point","coordinates":[-70.291544,-18.484029]},"properties":{"AÑO":2020,"COD_INST":536,"TIPO_INST":"Centros de Formación Técnica","NOMBRE_INS":"CFT DE TARAPACÁ","NOMBRE_INM":"CASA CENTRAL LAS ACACIAS","COD_REGION":15,"REGIÓN":"REGIÓN DE ARICA Y PARINACOTA","COD_PROVIN":151,"PROVINCIA":"ARICA","COD_COMUNA":15101,"COMUNA":"ARICA","DIRECCION":"LAS ACACIAS","NUMERO_DI":2090,"LUGAR_REFE":"","LATITUD":-18.484029,"LONGITUD":-70.291544}},
{"type":"Feature","geometry":{"type":"Point","coordinates":[-70.306379,-18.48674]},"properties":{"AÑO":2020,"COD_INST":80,"TIPO_INST":"Universidades Estatales CRUCH","NOMBRE_INS":"UNIVERSIDAD DE TARAPACÁ","NOMBRE_INM":"INSTITUTO DE ALTA INVESTIGACION","COD_REGION":15,"REGIÓN":"REGIÓN DE ARICA Y PARINACOTA","COD_PROVIN":151,"PROVINCIA":"ARICA","COD_COMUNA":15101,"COMUNA":"ARICA","DIRECCION":"ANTOFAGASTA","NUMERO_DI":1520,"LUGAR_REFE":"","LATITUD":-18.48674,"LONGITUD":-70.306379}},
{"type":"Feature","geometry":{"type":"Point","coordinates":[-70.297237,-18.488272]},"properties":{"AÑO":2020,"COD_INST":80,"TIPO_INST":"Universidades Estatales CRUCH","NOMBRE_INS":"UNIVERSIDAD DE TARAPACÁ","NOMBRE_INM":"CAMPUS SAUCACHE - SECTOR CARDENAL CARO","COD_REGION":15,"REGIÓN":"REGIÓN DE ARICA Y PARINACOTA","COD_PROVIN":151,"PROVINCIA":"ARICA","COD_COMUNA":15101,"COMUNA":"ARICA","DIRECCION":"CARDENAL CARO","NUMERO_DI":350,"LUGAR_REFE":"","LATITUD":-18.488272,"LONGITUD":-70.297237}},
{"type":"Feature","geometry":{"type":"Point","coordinates":[-70.295053,-18.488407]},"properties":{"AÑO":2020,"COD_INST":80,"TIPO_INST":"Universidades Estatales CRUCH","NOMBRE_INS":"UNIVERSIDAD DE TARAPACÁ","NOMBRE_INM":"CAMPUS SAUCACHE","COD_REGION":15,"REGIÓN":"REGIÓN DE ARICA Y PARINACOTA","COD_PROVIN":151,"PROVINCIA":"ARICA","COD_COMUNA":15101,"COMUNA":"ARICA","DIRECCION":"18 DE SEPTIEMBRE","NUMERO_DI":2222,"LUGAR_REFE":"","LATITUD":-18.488407,"LONGITUD":-70.295053}},
{"type":"Feature","geometry":{"type":"Point","coordinates":[-70.295053,-18.488407]},"properties":{"AÑO":2020,"COD_INST":536,"TIPO_INST":"Centros de Formación Técnica","NOMBRE_INS":"CFT DE TARAPACÁ","NOMBRE_INM":"CAMPUS SAUCACHE","COD_REGION":15,"REGIÓN":"REGIÓN DE ARICA Y PARINACOTA","COD_PROVIN":151,"PROVINCIA":"ARICA","COD_COMUNA":15101,"COMUNA":"ARICA","DIRECCION":"18 DE SEPTIEMBRE","NUMERO_DI":2222,"LUGAR_REFE":"","LATITUD":-18.488407,"LONGITUD":-70.295053}},
{"type":"Feature","geometry":{"type":"Point","coordinates":[-70.274399,-18.488786]},"properties":{"AÑO":2020,"COD_INST":260,"TIPO_INST":"Centros de Formación Técnica","NOMBRE_INS":"CFT SANTO TOMÁS","NOMBRE_INM":"","COD_REGION":15,"REGIÓN":"REGIÓN DE ARICA Y PARINACOTA","COD_PROVIN":151,"PROVINCIA":"ARICA","COD_COMUNA":15101,"COMUNA":"ARICA","DIRECCION":"CAMPO VERDE","NUMERO_DI":9,"LUGAR_REFE":"PARCELA 9 LOTE 5 A VALLE DE AZAPA","LATITUD":-18.488786,"LONGITUD":-70.274399}},
{"type":"Feature","geometry":{"type":"Point","coordinates":[-70.293581,-18.491353]},"properties":{"AÑO":2020,"COD_INST":80,"TIPO_INST":"Universidades Estatales CRUCH","NOMBRE_INS":"UNIVERSIDAD DE TARAPACÁ","NOMBRE_INM":"COMPLEJO DEPORTIVO","COD_REGION":15,"REGIÓN":"REGIÓN DE ARICA Y PARINACOTA","COD_PROVIN":151,"PROVINCIA":"ARICA","COD_COMUNA":15101,"COMUNA":"ARICA","DIRECCION":"ALCALDE EDMUNDO FLORES LUIS CRIGNOLA","NUMERO_DI":0,"LUGAR_REFE":"LOTE ALCALDE EDMUNDO FLORES LUIS CRIGNOLA SIN NUMERO","LATITUD":-18.491353,"LONGITUD":-70.293581}},
{"type":"Feature","geometry":{"type":"Point","coordinates":[-70.178612,-18.519805]},"properties":{"AÑO":2020,"COD_INST":80,"TIPO_INST":"Universidades Estatales CRUCH","NOMBRE_INS":"UNIVERSIDAD DE TARAPACÁ","NOMBRE_INM":"CAMPUS AZAPA PARCELA NUMERO 27","COD_REGION":15,"REGIÓN":"REGIÓN DE ARICA Y PARINACOTA","COD_PROVIN":151,"PROVINCIA":"ARICA","COD_COMUNA":15101,"COMUNA":"ARICA","DIRECCION":"HUMBERTO PALZA CORVACHO","NUMERO_DI":27,"LUGAR_REFE":"HUMBERTO PALZA CORVACHO PARCELA NUMERO 27 COLONIA JUAN NOE","LATITUD":-18.519805,"LONGITUD":-70.178612}},
{"type":"Feature","geometry":{"type":"Point","coordinates":[-70.179008,-18.520548]},"properties":{"AÑO":2020,"COD_INST":80,"TIPO_INST":"Universidades Estatales CRUCH","NOMBRE_INS":"UNIVERSIDAD DE TARAPACÁ","NOMBRE_INM":"CAMPUS AZAPA PARCELA NUMERO 35","COD_REGION":15,"REGIÓN":"REGIÓN DE ARICA Y PARINACOTA","COD_PROVIN":151,"PROVINCIA":"ARICA","COD_COMUNA":15101,"COMUNA":"ARICA","DIRECCION":"HUMBERTO PALZA CORVACHO","NUMERO_DI":35,"LUGAR_REFE":"HUMBERTO PALZA CORVACHO PARCELA NUMERO 35","LATITUD":-18.520548,"LONGITUD":-70.179008}},
{"type":"Feature","geometry":{"type":"Point","coordinates":[-70.693473,-33.676089]},"properties":{"AÑO":2020,"COD_INST":435,"TIPO_INST":"Centros de Formación Técnica","NOMBRE_INS":"CFT DEL MEDIO AMBIENTE","NOMBRE_INM":"CFT DEL MEDIO AMBIENTE","COD_REGION":13,"REGIÓN":"REGIÓN METROPOLITANA DE SANTIAGO","COD_PROVIN":134,"PROVINCIA":"MAIPO","COD_COMUNA":13402,"COMUNA":"BUIN","DIRECCION":"LOS TILOS","NUMERO_DI":5,"LUGAR_REFE":"PARCELA 5 A SECTOR LOS GUINDOS BUIN","LATITUD":-33.676089,"LONGITUD":-70.693473}},
{"type":"Feature","geometry":{"type":"Point","coordinates":[-70.739201,-33.730579]},"properties":{"AÑO":2020,"COD_INST":176,"TIPO_INST":"Institutos Profesionales","NOMBRE_INS":"IP VALLE CENTRAL","NOMBRE_INM":"SEDE BUIN","COD_REGION":13,"REGIÓN":"REGIÓN METROPOLITANA DE SANTIAGO","COD_PROVIN":134,"PROVINCIA":"MAIPO","COD_COMUNA":13402,"COMUNA":"BUIN","DIRECCION":"SARGENTO ALDEA","NUMERO_DI":288,"LUGAR_REFE":"Y 290","LATITUD":-33.730579,"LONGITUD":-70.739201}},
{"type":"Feature","geometry":{"type":"Point","coordinates":[-70.738426,-33.731192]},"properties":{"AÑO":2020,"COD_INST":435,"TIPO_INST":"Centros de Formación Técnica","NOMBRE_INS":"CFT DEL MEDIO AMBIENTE","NOMBRE_INM":"CFT DEL MEDIO AMBIENTE","COD_REGION":13,"REGIÓN":"REGIÓN METROPOLITANA DE SANTIAGO","COD_PROVIN":134,"PROVINCIA":"MAIPO","COD_COMUNA":13402,"COMUNA":"BUIN","DIRECCION":"ANIBAL PINTO","NUMERO_DI":155,"LUGAR_REFE":"","LATITUD":-33.731192,"LONGITUD":-70.738426}},
{"type":"Feature","geometry":{"type":"Point","coordinates":[-68.931284,-22.442013]},"properties":{"AÑO":2020,"COD_INST":54,"TIPO_INST":"Universidades Privadas","NOMBRE_INS":"UNIVERSIDAD TECNOLÓGICA DE CHILE INACAP","NOMBRE_INM":"TALLERES DE MAQUINARIA","COD_REGION":2,"REGIÓN":"REGIÓN DE ANTOFAGASTA","COD_PROVIN":22,"PROVINCIA":"EL LOA","COD_COMUNA":2201,"COMUNA":"CALAMA","DIRECCION":"AVENIDA GRANADEROS","NUMERO_DI":3685,"LUGAR_REFE":"","LATITUD":-22.442013,"LONGITUD":-68.931284}},
{"type":"Feature","geometry":{"type":"Point","coordinates":[-68.931284,-22.442013]},"properties":{"AÑO":2020,"COD_INST":100,"TIPO_INST":"Institutos Profesionales","NOMBRE_INS":"IP INACAP","NOMBRE_INM":"TALLERES DE MAQUINARIA","COD_REGION":2,"REGIÓN":"REGIÓN DE ANTOFAGASTA","COD_PROVIN":22,"PROVINCIA":"EL LOA","COD_COMUNA":2201,"COMUNA":"CALAMA","DIRECCION":"AVENIDA GRANADEROS","NUMERO_DI":3685,"LUGAR_REFE":"","LATITUD":-22.442013,"LONGITUD":-68.931284}},
{"type":"Feature","geometry":{"type":"Point","coordinates":[-68.931284,-22.442013]},"properties":{"AÑO":2020,"COD_INST":430,"TIPO_INST":"Centros de Formación Técnica","NOMBRE_INS":"CFT INACAP","NOMBRE_INM":"TALLERES DE MAQUINARIA","COD_REGION":2,"REGIÓN":"REGIÓN DE ANTOFAGASTA","COD_PROVIN":22,"PROVINCIA":"EL LOA","COD_COMUNA":2201,"COMUNA":"CALAMA","DIRECCION":"AVENIDA GRANADEROS","NUMERO_DI":3685,"LUGAR_REFE":"","LATITUD":-22.442013,"LONGITUD":-68.931284}},
{"type":"Feature","geometry":{"type":"Point","coordinates":[-68.927539,-22.445609]},"properties":{"AÑO":2020,"COD_INST":54,"TIPO_INST":"Universidades Privadas","NOMBRE_INS":"UNIVERSIDAD TECNOLÓGICA DE CHILE INACAP","NOMBRE_INM":"TALLER MANTENIMIENTO INDUSTRIAL","COD_REGION":2,"REGIÓN":"REGIÓN DE ANTOFAGASTA","COD_PROVIN":22,"PROVINCIA":"EL LOA","COD_COMUNA":2201,"COMUNA":"CALAMA","DIRECCION":"AVENIDA GRANADEROS","NUMERO_DI":3479,"LUGAR_REFE":"","LATITUD":-22.445609,"LONGITUD":-68.927539}},
{"type":"Feature","geometry":{"type":"Point","coordinates":[-68.927539,-22.445609]},"properties":{"AÑO":2020,"COD_INST":100,"TIPO_INST":"Institutos Profesionales","NOMBRE_INS":"IP INACAP","NOMBRE_INM":"TALLER MANTENIMIENTO INDUSTRIAL","COD_REGION":2,"REGIÓN":"REGIÓN DE ANTOFAGASTA","COD_PROVIN":22,"PROVINCIA":"EL LOA","COD_COMUNA":2201,"COMUNA":"CALAMA","DIRECCION":"AVENIDA GRANADEROS","NUMERO_DI":3479,"LUGAR_REFE":"","LATITUD":-22.445609,"LONGITUD":-68.927539}},
{"type":"Feature","geometry":{"type":"Point","coordinates":[-68.927539,-22.445609]},"properties":{"AÑO":2020,"COD_INST":430,"TIPO_INST":"Centros de Formación Técnica","NOMBRE_INS":"CFT INACAP","NOMBRE_INM":"TALLER MANTENIMIENTO INDUSTRIAL","COD_REGION":2,"REGIÓN":"REGIÓN DE ANTOFAGASTA","COD_PROVIN":22,"PROVINCIA":"EL LOA","COD_COMUNA":2201,"COMUNA":"CALAMA","DIRECCION":"AVENIDA GRANADEROS","NUMERO_DI":3479,"LUGAR_REFE":"","LATITUD":-22.445609,"LONGITUD":-68.927539}},
{"type":"Feature","geometry":{"type":"Point","coordinates":[-68.928844,-22.446582]},"properties":{"AÑO":2020,"COD_INST":54,"TIPO_INST":"Universidades Privadas","NOMBRE_INS":"UNIVERSIDAD TECNOLÓGICA DE CHILE INACAP","NOMBRE_INM":"AREA PROCESOS INDUSTRIALES","COD_REGION":2,"REGIÓN":"REGIÓN DE ANTOFAGASTA","COD_PROVIN":22,"PROVINCIA":"EL LOA","COD_COMUNA":2201,"COMUNA":"CALAMA","DIRECCION":"ESCOCIA","NUMERO_DI":2249,"LUGAR_REFE":"","LATITUD":-22.446582,"LONGITUD":-68.928844}},
{"type":"Feature","geometry":{"type":"Point","coordinates":[-68.928844,-22.446582]},"properties":{"AÑO":2020,"COD_INST":100,"TIPO_INST":"Institutos Profesionales","NOMBRE_INS":"IP INACAP","NOMBRE_INM":"AREA PROCESOS INDUSTRIALES","COD_REGION":2,"REGIÓN":"REGIÓN DE ANTOFAGASTA","COD_PROVIN":22,"PROVINCIA":"EL LOA","COD_COMUNA":2201,"COMUNA":"CALAMA","DIRECCION":"ESCOCIA","NUMERO_DI":2249,"LUGAR_REFE":"","LATITUD":-22.446582,"LONGITUD":-68.928844}},
{"type":"Feature","geometry":{"type":"Point","coordinates":[-68.928844,-22.446582]},"properties":{"AÑO":2020,"COD_INST":430,"TIPO_INST":"Centros de Formación Técnica","NOMBRE_INS":"CFT INACAP","NOMBRE_INM":"AREA PROCESOS INDUSTRIALES","COD_REGION":2,"REGIÓN":"REGIÓN DE ANTOFAGASTA","COD_PROVIN":22,"PROVINCIA":"EL LOA","COD_COMUNA":2201,"COMUNA":"CALAMA","DIRECCION":"ESCOCIA","NUMERO_DI":2249,"LUGAR_REFE":"","LATITUD":-22.446582,"LONGITUD":-68.928844}},
{"type":"Feature","geometry":{"type":"Point","coordinates":[-68.928704,-22.446651]},"properties":{"AÑO":2020,"COD_INST":54,"TIPO_INST":"Universidades Privadas","NOMBRE_INS":"UNIVERSIDAD TECNOLÓGICA DE CHILE INACAP","NOMBRE_INM":"AREA PROCESOS INDUSTRIALES","COD_REGION":2,"REGIÓN":"REGIÓN DE ANTOFAGASTA","COD_PROVIN":22,"PROVINCIA":"EL LOA","COD_COMUNA":2201,"COMUNA":"CALAMA","DIRECCION":"AVENIDA ARGENTINA","NUMERO_DI":3392,"LUGAR_REFE":"","LATITUD":-22.446651,"LONGITUD":-68.928704}},
{"type":"Feature","geometry":{"type":"Point","coordinates":[-68.928704,-22.446651]},"properties":{"AÑO":2020,"COD_INST":100,"TIPO_INST":"Institutos Profesionales","NOMBRE_INS":"IP INACAP","NOMBRE_INM":"AREA PROCESOS INDUSTRIALES","COD_REGION":2,"REGIÓN":"REGIÓN DE ANTOFAGASTA","COD_PROVIN":22,"PROVINCIA":"EL LOA","COD_COMUNA":2201,"COMUNA":"CALAMA","DIRECCION":"AVENIDA ARGENTINA","NUMERO_DI":3392,"LUGAR_REFE":"","LATITUD":-22.446651,"LONGITUD":-68.928704}},
{"type":"Feature","geometry":{"type":"Point","coordinates":[-68.928365,-22.447567]},"properties":{"AÑO":2020,"COD_INST":54,"TIPO_INST":"Universidades Privadas","NOMBRE_INS":"UNIVERSIDAD TECNOLÓGICA DE CHILE INACAP","NOMBRE_INM":"INACAP CALAMA","COD_REGION":2,"REGIÓN":"REGIÓN DE ANTOFAGASTA","COD_PROVIN":22,"PROVINCIA":"EL LOA","COD_COMUNA":2201,"COMUNA":"CALAMA","DIRECCION":"AVENIDA GRANADEROS","NUMERO_DI":3250,"LUGAR_REFE":"","LATITUD":-22.447567,"LONGITUD":-68.928365}},
{"type":"Feature","geometry":{"type":"Point","coordinates":[-68.928365,-22.447567]},"properties":{"AÑO":2020,"COD_INST":100,"TIPO_INST":"Institutos Profesionales","NOMBRE_INS":"IP INACAP","NOMBRE_INM":"INACAP CALAMA","COD_REGION":2,"REGIÓN":"REGIÓN DE ANTOFAGASTA","COD_PROVIN":22,"PROVINCIA":"EL LOA","COD_COMUNA":2201,"COMUNA":"CALAMA","DIRECCION":"AVENIDA GRANADEROS","NUMERO_DI":3250,"LUGAR_REFE":"","LATITUD":-22.447567,"LONGITUD":-68.928365}},
{"type":"Feature","geometry":{"type":"Point","coordinates":[-68.928365,-22.447567]},"properties":{"AÑO":2020,"COD_INST":430,"TIPO_INST":"Centros de Formación Técnica","NOMBRE_INS":"CFT INACAP","NOMBRE_INM":"INACAP CALAMA","COD_REGION":2,"REGIÓN":"REGIÓN DE ANTOFAGASTA","COD_PROVIN":22,"PROVINCIA":"EL LOA","COD_COMUNA":2201,"COMUNA":"CALAMA","DIRECCION":"AVENIDA GRANADEROS","NUMERO_DI":3250,"LUGAR_REFE":"","LATITUD":-22.447567,"LONGITUD":-68.928365}},
{"type":"Feature","geometry":{"type":"Point","coordinates":[-68.921267,-22.449691]},"properties":{"AÑO":2020,"COD_INST":143,"TIPO_INST":"Institutos Profesionales","NOMBRE_INS":"IP AIEP","NOMBRE_INM":"SEDE CALAMA","COD_REGION":2,"REGIÓN":"REGIÓN DE ANTOFAGASTA","COD_PROVIN":22,"PROVINCIA":"EL LOA","COD_COMUNA":2201,"COMUNA":"CALAMA","DIRECCION":"AVENIDA BALMACEDA","NUMERO_DI":3242,"LUGAR_REFE":"","LATITUD":-22.449691,"LONGITUD":-68.921267}},
{"type":"Feature","geometry":{"type":"Point","coordinates":[-68.921267,-22.449691]},"properties":{"AÑO":2020,"COD_INST":430,"TIPO_INST":"Centros de Formación Técnica","NOMBRE_INS":"CFT INACAP","NOMBRE_INM":"AREA PROCESOS INDUSTRIALES","COD_REGION":2,"REGIÓN":"REGIÓN DE ANTOFAGASTA","COD_PROVIN":22,"PROVINCIA":"EL LOA","COD_COMUNA":2201,"COMUNA":"CALAMA","DIRECCION":"AVENIDA ARGENTINA","NUMERO_DI":3392,"LUGAR_REFE":"","LATITUD":-22.449691,"LONGITUD":-68.921267}},
{"type":"Feature","geometry":{"type":"Point","coordinates":[-68.9229243602837,-22.4511138894694]},"properties":{"AÑO":2020,"COD_INST":81,"TIPO_INST":"Universidades Estatales CRUCH","NOMBRE_INS":"UNIVERSIDAD ARTURO PRAT","NOMBRE_INM":"CENTRO CALAMA","COD_REGION":2,"REGIÓN":"REGIÓN DE ANTOFAGASTA","COD_PROVIN":22,"PROVINCIA":"EL LOA","COD_COMUNA":2201,"COMUNA":"CALAMA","DIRECCION":"VIA PARQUE ORIENTE","NUMERO_DI":2560,"LUGAR_REFE":"","LATITUD":-22.451114,"LONGITUD":-68.922924}},
{"type":"Feature","geometry":{"type":"Point","coordinates":[-68.922461,-22.454527]},"properties":{"AÑO":2020,"COD_INST":46,"TIPO_INST":"Universidades Privadas","NOMBRE_INS":"UNIVERSIDAD DE ACONCAGUA","NOMBRE_INM":"SEDE CALAMA","COD_REGION":2,"REGIÓN":"REGIÓN DE ANTOFAGASTA","COD_PROVIN":22,"PROVINCIA":"EL LOA","COD_COMUNA":2201,"COMUNA":"CALAMA","DIRECCION":"AVENIDA CHORRILLOS","NUMERO_DI":1677,"LUGAR_REFE":"TORRE 2 EDIFICIO PLAZA SOL","LATITUD":-22.454527,"LONGITUD":-68.922461}},
{"type":"Feature","geometry":{"type":"Point","coordinates":[-68.930096,-22.470741]},"properties":{"AÑO":2020,"COD_INST":908,"TIPO_INST":"Centros de Formación Técnica Estatales","NOMBRE_INS":"CFT DE LA REGIÓN DE ANTOFAGASTA","NOMBRE_INM":"CENTRO DE FORMACION TECNICA ESTATAL DE LA REGION DE ANTOFAGASTA","COD_REGION":2,"REGIÓN":"REGIÓN DE ANTOFAGASTA","COD_PROVIN":22,"PROVINCIA":"EL LOA","COD_COMUNA":2201,"COMUNA":"CALAMA","DIRECCION":"OSORNO","NUMERO_DI":1187,"LUGAR_REFE":"SECTOR GRAN AVENDA","LATITUD":-22.470741,"LONGITUD":-68.930096}},
{"type":"Feature","geometry":{"type":"Point","coordinates":[-70.8235881214877,-27.0657061037905]},"properties":{"AÑO":2020,"COD_INST":79,"TIPO_INST":"Universidades Estatales CRUCH","NOMBRE_INS":"UNIVERSIDAD DE ATACAMA","NOMBRE_INM":"UNIVERSIDAD DE ATACAMA CENTRO DE DESARROLLO CALDERA","COD_REGION":3,"REGIÓN":"REGIÓN DE ATACAMA","COD_PROVIN":31,"PROVINCIA":"COPIAPÓ","COD_COMUNA":3102,"COMUNA":"CALDERA","DIRECCION":"GANA","NUMERO_DI":100,"LUGAR_REFE":"","LATITUD":-27.065706,"LONGITUD":-70.823588}},
{"type":"Feature","geometry":{"type":"Point","coordinates":[-70.8920134298165,-27.1352020281478]},"properties":{"AÑO":2020,"COD_INST":79,"TIPO_INST":"Universidades Estatales CRUCH","NOMBRE_INS":"UNIVERSIDAD DE ATACAMA","NOMBRE_INM":"UNIVERDIDAD DE ATACAMA CENTRO DE INVESTIGACION","COD_REGION":3,"REGIÓN":"REGIÓN DE ATACAMA","COD_PROVIN":31,"PROVINCIA":"COPIAPÓ","COD_COMUNA":3102,"COMUNA":"CALDERA","DIRECCION":"PUNTA FERNANDEZ","NUMERO_DI":0,"LUGAR_REFE":"PUNTA FERNANDEZ S/N","LATITUD":-27.135202,"LONGITUD":-70.892013}},
{"type":"Feature","geometry":{"type":"Point","coordinates":[-73.390947,-37.791912]},"properties":{"AÑO":2020,"COD_INST":93,"TIPO_INST":"Universidades Privadas CRUCH","NOMBRE_INS":"UNIVERSIDAD CATÓLICA DE LA SANTÍSIMA CONCEPCIÓN","NOMBRE_INM":"INSTITUTO TECNOLOGICO SEDE CAÑETE","COD_REGION":8,"REGIÓN":"REGIÓN DEL BIOBÍO","COD_PROVIN":82,"PROVINCIA":"ARAUCO","COD_COMUNA":8203,"COMUNA":"CAÑETE","DIRECCION":"AVENIDA EDUARDO FREI","NUMERO_DI":787,"LUGAR_REFE":"","LATITUD":-37.791912,"LONGITUD":-73.390947}},
{"type":"Feature","geometry":{"type":"Point","coordinates":[-73.389798,-37.791939]},"properties":{"AÑO":2020,"COD_INST":93,"TIPO_INST":"Universidades Privadas CRUCH","NOMBRE_INS":"UNIVERSIDAD CATÓLICA DE LA SANTÍSIMA CONCEPCIÓN","NOMBRE_INM":"INSTITUTO TECNOLOGICO SEDE CAÑETE","COD_REGION":8,"REGIÓN":"REGIÓN DEL BIOBÍO","COD_PROVIN":82,"PROVINCIA":"ARAUCO","COD_COMUNA":8203,"COMUNA":"CAÑETE","DIRECCION":"AVENIDA EDUARDO FREI","NUMERO_DI":898,"LUGAR_REFE":"","LATITUD":-37.791939,"LONGITUD":-73.389798}},
{"type":"Feature","geometry":{"type":"Point","coordinates":[-73.397863,-37.799891]},"properties":{"AÑO":2020,"COD_INST":450,"TIPO_INST":"Centros de Formación Técnica","NOMBRE_INS":"CFT LOTA-ARAUCO","NOMBRE_INM":"CFT LOTA ARAUCO","COD_REGION":8,"REGIÓN":"REGIÓN DEL BIOBÍO","COD_PROVIN":82,"PROVINCIA":"ARAUCO","COD_COMUNA":8203,"COMUNA":"CAÑETE","DIRECCION":"ARTURO PRAT","NUMERO_DI":338,"LUGAR_REFE":"CAÑETE","LATITUD":-37.799891,"LONGITUD":-73.397863}},
{"type":"Feature","geometry":{"type":"Point","coordinates":[-71.7017585650087,-33.1929823316508]},"properties":{"AÑO":2020,"COD_INST":20,"TIPO_INST":"Universidades Privadas","NOMBRE_INS":"UNIVERSIDAD ANDRÉS BELLO","NOMBRE_INM":"SEDE VIÑA DEL MAR","COD_REGION":5,"REGIÓN":"REGIÓN DE VALPARAÍSO","COD_PROVIN":51,"PROVINCIA":"VALPARAÍSO","COD_COMUNA":5102,"COMUNA":"CASABLANCA","DIRECCION":"EX BALLENERA","NUMERO_DI":0,"LUGAR_REFE":"EX BALLENERA SN QUINTAY","LATITUD":-33.192982,"LONGITUD":-71.701759}},
{"type":"Feature","geometry":{"type":"Point","coordinates":[-73.790108071869,-42.3978312078393]},"properties":{"AÑO":2020,"COD_INST":84,"TIPO_INST":"Universidades Estatales CRUCH","NOMBRE_INS":"UNIVERSIDAD DE LOS LAGOS","NOMBRE_INM":"CHILOE CASTRO 5 COMPLEJO DEPORTIVO SPORT 7","COD_REGION":10,"REGIÓN":"REGIÓN DE LOS LAGOS","COD_PROVIN":102,"PROVINCIA":"CHILOÉ","COD_COMUNA":10201,"COMUNA":"CASTRO","DIRECCION":"COMPLEJO DEPORTIVO SPORT","NUMERO_DI":7,"LUGAR_REFE":"SECTOR PID PID","LATITUD":-42.397831,"LONGITUD":-73.790108}},
{"type":"Feature","geometry":{"type":"Point","coordinates":[-73.766676,-42.476362]},"properties":{"AÑO":2020,"COD_INST":84,"TIPO_INST":"Universidades Estatales CRUCH","NOMBRE_INS":"UNIVERSIDAD DE LOS LAGOS","NOMBRE_INM":"SEDE CHILOE LOS CARRERA 838","COD_REGION":10,"REGIÓN":"REGIÓN DE LOS LAGOS","COD_PROVIN":102,"PROVINCIA":"CHILOÉ","COD_COMUNA":10201,"COMUNA":"CASTRO","DIRECCION":"LOS CARRERA","NUMERO_DI":838,"LUGAR_REFE":"","LATITUD":-42.476362,"LONGITUD":-73.766676}},
{"type":"Feature","geometry":{"type":"Point","coordinates":[-73.76516,-42.476731]},"properties":{"AÑO":2020,"COD_INST":143,"TIPO_INST":"Institutos Profesionales","NOMBRE_INS":"IP AIEP","NOMBRE_INM":"SEDE CASTRO","COD_REGION":10,"REGIÓN":"REGIÓN DE LOS LAGOS","COD_PROVIN":102,"PROVINCIA":"CHILOÉ","COD_COMUNA":10201,"COMUNA":"CASTRO","DIRECCION":"OHIGGINS","NUMERO_DI":801,"LUGAR_REFE":"","LATITUD":-42.476731,"LONGITUD":-73.76516}},
{"type":"Feature","geometry":{"type":"Point","coordinates":[-73.766814,-42.478426]},"properties":{"AÑO":2020,"COD_INST":84,"TIPO_INST":"Universidades Estatales CRUCH","NOMBRE_INS":"UNIVERSIDAD DE LOS LAGOS","NOMBRE_INM":"SEDE CHILOE LOS CARRERA 678","COD_REGION":10,"REGIÓN":"REGIÓN DE LOS LAGOS","COD_PROVIN":102,"PROVINCIA":"CHILOÉ","COD_COMUNA":10201,"COMUNA":"CASTRO","DIRECCION":"LOS CARRERA","NUMERO_DI":678,"LUGAR_REFE":"","LATITUD":-42.478426,"LONGITUD":-73.766814}},
{"type":"Feature","geometry":{"type":"Point","coordinates":[-73.760481,-42.482192]},"properties":{"AÑO":2020,"COD_INST":84,"TIPO_INST":"Universidades Estatales CRUCH","NOMBRE_INS":"UNIVERSIDAD DE LOS LAGOS","NOMBRE_INM":"SEDE CHILOE EDIFICIO BLANCO","COD_REGION":10,"REGIÓN":"REGIÓN DE LOS LAGOS","COD_PROVIN":102,"PROVINCIA":"CHILOÉ","COD_COMUNA":10201,"COMUNA":"CASTRO","DIRECCION":"BLANCO ENCALADA","NUMERO_DI":63,"LUGAR_REFE":"","LATITUD":-42.482192,"LONGITUD":-73.760481}},
{"type":"Feature","geometry":{"type":"Point","coordinates":[-73.779069,-42.482451]},"properties":{"AÑO":2020,"COD_INST":84,"TIPO_INST":"Universidades Estatales CRUCH","NOMBRE_INS":"UNIVERSIDAD DE LOS LAGOS","NOMBRE_INM":"CASA 1 DDE/DIAC","COD_REGION":10,"REGIÓN":"REGIÓN DE LOS LAGOS","COD_PROVIN":102,"PROVINCIA":"CHILOÉ","COD_COMUNA":10201,"COMUNA":"CASTRO","DIRECCION":"PADRE PEDRO CONSTANTINA","NUMERO_DI":241,"LUGAR_REFE":"","LATITUD":-42.482451,"LONGITUD":-73.779069}},
{"type":"Feature","geometry":{"type":"Point","coordinates":[-73.779209,-42.482489]},"properties":{"AÑO":2020,"COD_INST":84,"TIPO_INST":"Universidades Estatales CRUCH","NOMBRE_INS":"UNIVERSIDAD DE LOS LAGOS","NOMBRE_INM":"CASA 2 DDE/DIAC","COD_REGION":10,"REGIÓN":"REGIÓN DE LOS LAGOS","COD_PROVIN":102,"PROVINCIA":"CHILOÉ","COD_COMUNA":10201,"COMUNA":"CASTRO","DIRECCION":"PADRE PEDRO CONSTANTINA","NUMERO_DI":247,"LUGAR_REFE":"","LATITUD":-42.482489,"LONGITUD":-73.779209}},
{"type":"Feature","geometry":{"type":"Point","coordinates":[-73.7758211198572,-42.4828343439531]},"properties":{"AÑO":2020,"COD_INST":84,"TIPO_INST":"Universidades Estatales CRUCH","NOMBRE_INS":"UNIVERSIDAD DE LOS LAGOS","NOMBRE_INM":"SEDE UNIVERSITARIA CHILOE","COD_REGION":10,"REGIÓN":"REGIÓN DE LOS LAGOS","COD_PROVIN":102,"PROVINCIA":"CHILOÉ","COD_COMUNA":10201,"COMUNA":"CASTRO","DIRECCION":"UBALDO MANCILLA","NUMERO_DI":131,"LUGAR_REFE":"SECTOR GAMBOA","LATITUD":-42.482834,"LONGITUD":-73.775821}},
{"type":"Feature","geometry":{"type":"Point","coordinates":[-72.314035,-35.98123]},"properties":{"AÑO":2020,"COD_INST":367,"TIPO_INST":"Centros de Formación Técnica","NOMBRE_INS":"CFT SAN AGUSTÍN","NOMBRE_INM":"SEDE CAUQUENES - NUEVA","COD_REGION":7,"REGIÓN":"REGIÓN DEL MAULE","COD_PROVIN":72,"PROVINCIA":"CAUQUENES","COD_COMUNA":7201,"COMUNA":"CAUQUENES","DIRECCION":"AVENIDA RUPERTO PINOCHET ALVIS","NUMERO_DI":86,"LUGAR_REFE":"","LATITUD":-35.98123,"LONGITUD":-72.314035}},
{"type":"Feature","geometry":{"type":"Point","coordinates":[-72.315543,-35.981598]},"properties":{"AÑO":2020,"COD_INST":367,"TIPO_INST":"Centros de Formación Técnica","NOMBRE_INS":"CFT SAN AGUSTÍN","NOMBRE_INM":"SEDE CAUQUENES - ANTIGUA","COD_REGION":7,"REGIÓN":"REGIÓN DEL MAULE","COD_PROVIN":72,"PROVINCIA":"CAUQUENES","COD_COMUNA":7201,"COMUNA":"CAUQUENES","DIRECCION":"AVENIDA MONSEÑOR ENRIQUE ALVEAR","NUMERO_DI":0,"LUGAR_REFE":"AVENIDA MONSEÑOR ENRIQUE ALVEAR S/N - EX BARRIO ESTACION","LATITUD":-35.981598,"LONGITUD":-72.315543}},
{"type":"Feature","geometry":{"type":"Point","coordinates":[-70.7167953013833,-33.4943924114682]},"properties":{"AÑO":2020,"COD_INST":70,"TIPO_INST":"Universidades Estatales CRUCH","NOMBRE_INS":"UNIVERSIDAD DE CHILE","NOMBRE_INM":"FACULTAD DE CIENCIAS FISICAS Y MATEMATICAS CERRILLOS","COD_REGION":13,"REGIÓN":"REGIÓN METROPOLITANA DE SANTIAGO","COD_PROVIN":131,"PROVINCIA":"SANTIAGO","COD_COMUNA":13102,"COMUNA":"CERRILLOS","DIRECCION":"SALOMON SACK","NUMERO_DI":830,"LUGAR_REFE":"LOTE B","LATITUD":-33.494392,"LONGITUD":-70.716795}},
{"type":"Feature","geometry":{"type":"Point","coordinates":[-70.718433,-33.515181]},"properties":{"AÑO":2020,"COD_INST":111,"TIPO_INST":"Institutos Profesionales","NOMBRE_INS":"IP DUOC UC","NOMBRE_INM":"PLAZA OESTE","COD_REGION":13,"REGIÓN":"REGIÓN METROPOLITANA DE SANTIAGO","COD_PROVIN":131,"PROVINCIA":"SANTIAGO","COD_COMUNA":13102,"COMUNA":"CERRILLOS","DIRECCION":"AVENIDA AMERICO VESPUCIO","NUMERO_DI":1501,"LUGAR_REFE":"","LATITUD":-33.515181,"LONGITUD":-70.718433}},
{"type":"Feature","geometry":{"type":"Point","coordinates":[-72.096692,-36.568762]},"properties":{"AÑO":2020,"COD_INST":9,"TIPO_INST":"Universidades Privadas","NOMBRE_INS":"UNIVERSIDAD PEDRO DE VALDIVIA","NOMBRE_INM":"CAMPUS CHILLAN","COD_REGION":16,"REGIÓN":"REGIÓN DE ÑUBLE","COD_PROVIN":161,"PROVINCIA":"DIGUILLIN","COD_COMUNA":16101,"COMUNA":"CHILLÁN","DIRECCION":"PANAMERICANA NORTE","NUMERO_DI":3651,"LUGAR_REFE":"","LATITUD":-36.568762,"LONGITUD":-72.096692}},
{"type":"Feature","geometry":{"type":"Point","coordinates":[-72.08241,-36.589869]},"properties":{"AÑO":2020,"COD_INST":139,"TIPO_INST":"Institutos Profesionales","NOMBRE_INS":"IP DR. VIRGINIO GÓMEZ G.","NOMBRE_INM":"SEDE CHILLAN","COD_REGION":16,"REGIÓN":"REGIÓN DE ÑUBLE","COD_PROVIN":161,"PROVINCIA":"DIGUILLIN","COD_COMUNA":16101,"COMUNA":"CHILLÁN","DIRECCION":"AVENIDA VICENTE MENDEZ","NUMERO_DI":1240,"LUGAR_REFE":"","LATITUD":-36.589869,"LONGITUD":-72.08241}},
{"type":"Feature","geometry":{"type":"Point","coordinates":[-72.103872,-36.593612]},"properties":{"AÑO":2020,"COD_INST":54,"TIPO_INST":"Universidades Privadas","NOMBRE_INS":"UNIVERSIDAD TECNOLÓGICA DE CHILE INACAP","NOMBRE_INM":"INACAP CHILLAN","COD_REGION":16,"REGIÓN":"REGIÓN DE ÑUBLE","COD_PROVIN":161,"PROVINCIA":"DIGUILLIN","COD_COMUNA":16101,"COMUNA":"CHILLÁN","DIRECCION":"CARRETERA LONGUITUDINAL SUR","NUMERO_DI":441,"LUGAR_REFE":"","LATITUD":-36.593612,"LONGITUD":-72.103872}},
{"type":"Feature","geometry":{"type":"Point","coordinates":[-72.103872,-36.593612]},"properties":{"AÑO":2020,"COD_INST":430,"TIPO_INST":"Centros de Formación Técnica","NOMBRE_INS":"CFT INACAP","NOMBRE_INM":"INACAP CHILLAN","COD_REGION":16,"REGIÓN":"REGIÓN DE ÑUBLE","COD_PROVIN":161,"PROVINCIA":"DIGUILLIN","COD_COMUNA":16101,"COMUNA":"CHILLÁN","DIRECCION":"CARRETERA LONGUITUDINAL SUR","NUMERO_DI":441,"LUGAR_REFE":"","LATITUD":-36.593612,"LONGITUD":-72.103872}},
{"type":"Feature","geometry":{"type":"Point","coordinates":[-72.104319,-36.594381]},"properties":{"AÑO":2020,"COD_INST":100,"TIPO_INST":"Institutos Profesionales","NOMBRE_INS":"IP INACAP","NOMBRE_INM":"INACAP CHILLAN","COD_REGION":16,"REGIÓN":"REGIÓN DE ÑUBLE","COD_PROVIN":161,"PROVINCIA":"DIGUILLIN","COD_COMUNA":16101,"COMUNA":"CHILLÁN","DIRECCION":"CARRETERA LONGUITUDINAL SUR","NUMERO_DI":441,"LUGAR_REFE":"","LATITUD":-36.594381,"LONGITUD":-72.104319}},
{"type":"Feature","geometry":{"type":"Point","coordinates":[-72.086066,-36.596509]},"properties":{"AÑO":2020,"COD_INST":87,"TIPO_INST":"Universidades Privadas CRUCH","NOMBRE_INS":"UNIVERSIDAD DE CONCEPCIÓN","NOMBRE_INM":"CAMPUS CHILLAN TERRENO","COD_REGION":16,"REGIÓN":"REGIÓN DE ÑUBLE","COD_PROVIN":161,"PROVINCIA":"DIGUILLIN","COD_COMUNA":16101,"COMUNA":"CHILLÁN","DIRECCION":"AVENIDA VICENTE MENDEZ","NUMERO_DI":595,"LUGAR_REFE":"LOTE A1 CAMPUS","LATITUD":-36.596509,"LONGITUD":-72.086066}},
{"type":"Feature","geometry":{"type":"Point","coordinates":[-72.105401,-36.600772]},"properties":{"AÑO":2020,"COD_INST":116,"TIPO_INST":"Institutos Profesionales","NOMBRE_INS":"IP SANTO TOMÁS","NOMBRE_INM":"","COD_REGION":16,"REGIÓN":"REGIÓN DE ÑUBLE","COD_PROVIN":161,"PROVINCIA":"DIGUILLIN","COD_COMUNA":16101,"COMUNA":"CHILLÁN","DIRECCION":"CLAUDIO ARRAU","NUMERO_DI":142,"LUGAR_REFE":"","LATITUD":-36.600772,"LONGITUD":-72.105401}},
{"type":"Feature","geometry":{"type":"Point","coordinates":[-72.105401,-36.600772]},"properties":{"AÑO":2020,"COD_INST":260,"TIPO_INST":"Centros de Formación Técnica","NOMBRE_INS":"CFT SANTO TOMÁS","NOMBRE_INM":"","COD_REGION":16,"REGIÓN":"REGIÓN DE ÑUBLE","COD_PROVIN":161,"PROVINCIA":"DIGUILLIN","COD_COMUNA":16101,"COMUNA":"CHILLÁN","DIRECCION":"CLAUDIO ARRAU","NUMERO_DI":142,"LUGAR_REFE":"","LATITUD":-36.600772,"LONGITUD":-72.105401}},
{"type":"Feature","geometry":{"type":"Point","coordinates":[-72.1065092846763,-36.6010361017928]},"properties":{"AÑO":2020,"COD_INST":260,"TIPO_INST":"Centros de Formación Técnica","NOMBRE_INS":"CFT SANTO TOMÁS","NOMBRE_INM":"","COD_REGION":16,"REGIÓN":"REGIÓN DE ÑUBLE","COD_PROVIN":161,"PROVINCIA":"DIGUILLIN","COD_COMUNA":16101,"COMUNA":"CHILLÁN","DIRECCION":"GAMERO","NUMERO_DI":221,"LUGAR_REFE":"","LATITUD":-36.601036,"LONGITUD":-72.106509}},
{"type":"Feature","geometry":{"type":"Point","coordinates":[-72.1065491815247,-36.6010500681055]},"properties":{"AÑO":2020,"COD_INST":116,"TIPO_INST":"Institutos Profesionales","NOMBRE_INS":"IP SANTO TOMÁS","NOMBRE_INM":"","COD_REGION":16,"REGIÓN":"REGIÓN DE ÑUBLE","COD_PROVIN":161,"PROVINCIA":"DIGUILLIN","COD_COMUNA":16101,"COMUNA":"CHILLÁN","DIRECCION":"GAMERO","NUMERO_DI":221,"LUGAR_REFE":"","LATITUD":-36.60105,"LONGITUD":-72.106549}},
{"type":"Feature","geometry":{"type":"Point","coordinates":[-72.106522,-36.601067]},"properties":{"AÑO":2020,"COD_INST":116,"TIPO_INST":"Institutos Profesionales","NOMBRE_INS":"IP SANTO TOMÁS","NOMBRE_INM":"","COD_REGION":16,"REGIÓN":"REGIÓN DE ÑUBLE","COD_PROVIN":161,"PROVINCIA":"DIGUILLIN","COD_COMUNA":16101,"COMUNA":"CHILLÁN","DIRECCION":"GAMERO","NUMERO_DI":227,"LUGAR_REFE":"","LATITUD":-36.601067,"LONGITUD":-72.106522}},
{"type":"Feature","geometry":{"type":"Point","coordinates":[-72.106522,-36.601067]},"properties":{"AÑO":2020,"COD_INST":260,"TIPO_INST":"Centros de Formación Técnica","NOMBRE_INS":"CFT SANTO TOMÁS","NOMBRE_INM":"","COD_REGION":16,"REGIÓN":"REGIÓN DE ÑUBLE","COD_PROVIN":161,"PROVINCIA":"DIGUILLIN","COD_COMUNA":16101,"COMUNA":"CHILLÁN","DIRECCION":"GAMERO","NUMERO_DI":227,"LUGAR_REFE":"","LATITUD":-36.601067,"LONGITUD":-72.106522}},
{"type":"Feature","geometry":{"type":"Point","coordinates":[-72.110347,-36.602098]},"properties":{"AÑO":2020,"COD_INST":75,"TIPO_INST":"Universidades Estatales CRUCH","NOMBRE_INS":"UNIVERSIDAD DEL BÍO-BÍO","NOMBRE_INM":"CAMPUS LA CASTILLA","COD_REGION":16,"REGIÓN":"REGIÓN DE ÑUBLE","COD_PROVIN":161,"PROVINCIA":"DIGUILLIN","COD_COMUNA":16101,"COMUNA":"CHILLÁN","DIRECCION":"AVENIDA BRASIL","NUMERO_DI":331,"LUGAR_REFE":"","LATITUD":-36.602098,"LONGITUD":-72.110347}},
{"type":"Feature","geometry":{"type":"Point","coordinates":[-72.077349,-36.602906]},"properties":{"AÑO":2020,"COD_INST":75,"TIPO_INST":"Universidades Estatales CRUCH","NOMBRE_INS":"UNIVERSIDAD DEL BÍO-BÍO","NOMBRE_INM":"CAMPUS FERNANDO MAY","COD_REGION":16,"REGIÓN":"REGIÓN DE ÑUBLE","COD_PROVIN":161,"PROVINCIA":"DIGUILLIN","COD_COMUNA":16101,"COMUNA":"CHILLÁN","DIRECCION":"AVENIDA ANDRES BELLO","NUMERO_DI":720,"LUGAR_REFE":"","LATITUD":-36.602906,"LONGITUD":-72.077349}},
{"type":"Feature","geometry":{"type":"Point","coordinates":[-72.111023,-36.604445]},"properties":{"AÑO":2020,"COD_INST":120,"TIPO_INST":"Institutos Profesionales","NOMBRE_INS":"IP DIEGO PORTALES","NOMBRE_INM":"INSTITUTO PROFESIONAL DIEGO PORTALES","COD_REGION":16,"REGIÓN":"REGIÓN DE ÑUBLE","COD_PROVIN":161,"PROVINCIA":"DIGUILLIN","COD_COMUNA":16101,"COMUNA":"CHILLÁN","DIRECCION":"LIBERTAD","NUMERO_DI":68,"LUGAR_REFE":"","LATITUD":-36.604445,"LONGITUD":-72.111023}},
{"type":"Feature","geometry":{"type":"Point","coordinates":[-72.110406,-36.604527]},"properties":{"AÑO":2020,"COD_INST":120,"TIPO_INST":"Institutos Profesionales","NOMBRE_INS":"IP DIEGO PORTALES","NOMBRE_INM":"INSTITUTO PROFESIONAL DIEGO PORTALES","COD_REGION":16,"REGIÓN":"REGIÓN DE ÑUBLE","COD_PROVIN":161,"PROVINCIA":"DIGUILLIN","COD_COMUNA":16101,"COMUNA":"CHILLÁN","DIRECCION":"LIBERTAD","NUMERO_DI":86,"LUGAR_REFE":"","LATITUD":-36.604527,"LONGITUD":-72.110406}},
{"type":"Feature","geometry":{"type":"Point","coordinates":[-72.101991,-36.605672]},"properties":{"AÑO":2020,"COD_INST":93,"TIPO_INST":"Universidades Privadas CRUCH","NOMBRE_INS":"UNIVERSIDAD CATÓLICA DE LA SANTÍSIMA CONCEPCIÓN","NOMBRE_INM":"INSTITUTO TECNOLOGICO SEDE CHILLAN","COD_REGION":16,"REGIÓN":"REGIÓN DE ÑUBLE","COD_PROVIN":161,"PROVINCIA":"DIGUILLIN","COD_COMUNA":16101,"COMUNA":"CHILLÁN","DIRECCION":"ARAUCO","NUMERO_DI":449,"LUGAR_REFE":"447","LATITUD":-36.605672,"LONGITUD":-72.101991}},
{"type":"Feature","geometry":{"type":"Point","coordinates":[-72.104394,-36.606431]},"properties":{"AÑO":2020,"COD_INST":75,"TIPO_INST":"Universidades Estatales CRUCH","NOMBRE_INS":"UNIVERSIDAD DEL BÍO-BÍO","NOMBRE_INM":"CENTRO DE EXTENSION","COD_REGION":16,"REGIÓN":"REGIÓN DE ÑUBLE","COD_PROVIN":161,"PROVINCIA":"DIGUILLIN","COD_COMUNA":16101,"COMUNA":"CHILLÁN","DIRECCION":"18 DE SEPTIEMBRE","NUMERO_DI":550,"LUGAR_REFE":"580","LATITUD":-36.606431,"LONGITUD":-72.104394}},
{"type":"Feature","geometry":{"type":"Point","coordinates":[-72.0990309405285,-36.6067282537868]},"properties":{"AÑO":2020,"COD_INST":87,"TIPO_INST":"Universidades Privadas CRUCH","NOMBRE_INS":"UNIVERSIDAD DE CONCEPCIÓN","NOMBRE_INM":"CENTRO DE EXTENSION CULTURAL ALFONSO LAGOS","COD_REGION":16,"REGIÓN":"REGIÓN DE ÑUBLE","COD_PROVIN":161,"PROVINCIA":"DIGUILLIN","COD_COMUNA":16101,"COMUNA":"CHILLÁN","DIRECCION":"CALLE ISABEL RIQUELME","NUMERO_DI":479,"LUGAR_REFE":"","LATITUD":-36.606728,"LONGITUD":-72.099031}},
{"type":"Feature","geometry":{"type":"Point","coordinates":[-72.0985327538112,-36.6068785579635]},"properties":{"AÑO":2020,"COD_INST":87,"TIPO_INST":"Universidades Privadas CRUCH","NOMBRE_INS":"UNIVERSIDAD DE CONCEPCIÓN","NOMBRE_INM":"SALA MULTIUSO","COD_REGION":16,"REGIÓN":"REGIÓN DE ÑUBLE","COD_PROVIN":161,"PROVINCIA":"DIGUILLIN","COD_COMUNA":16101,"COMUNA":"CHILLÁN","DIRECCION":"AVENIDA LIBERTAD","NUMERO_DI":833,"LUGAR_REFE":"EDIFICIO DON ALFONSO","LATITUD":-36.606879,"LONGITUD":-72.098533}},
{"type":"Feature","geometry":{"type":"Point","coordinates":[-72.0995594286024,-36.6075345152325]},"properties":{"AÑO":2020,"COD_INST":260,"TIPO_INST":"Centros de Formación Técnica","NOMBRE_INS":"CFT SANTO TOMÁS","NOMBRE_INM":"","COD_REGION":16,"REGIÓN":"REGIÓN DE ÑUBLE","COD_PROVIN":161,"PROVINCIA":"DIGUILLIN","COD_COMUNA":16101,"COMUNA":"CHILLÁN","DIRECCION":"CAMINO A CATO","NUMERO_DI":12,"LUGAR_REFE":"CAMINO A CATO KILOMETRO 12","LATITUD":-36.607535,"LONGITUD":-72.099559}},
{"type":"Feature","geometry":{"type":"Point","coordinates":[-72.1022152074161,-36.6075857670739]},"properties":{"AÑO":2020,"COD_INST":176,"TIPO_INST":"Institutos Profesionales","NOMBRE_INS":"IP VALLE CENTRAL","NOMBRE_INM":"SEDE CHILLAN","COD_REGION":16,"REGIÓN":"REGIÓN DE ÑUBLE","COD_PROVIN":161,"PROVINCIA":"DIGUILLIN","COD_COMUNA":16101,"COMUNA":"CHILLÁN","DIRECCION":"CONSTITUCION","NUMERO_DI":620,"LUGAR_REFE":"","LATITUD":-36.607586,"LONGITUD":-72.102215}},
{"type":"Feature","geometry":{"type":"Point","coordinates":[-72.099698,-36.607693]},"properties":{"AÑO":2020,"COD_INST":116,"TIPO_INST":"Institutos Profesionales","NOMBRE_INS":"IP SANTO TOMÁS","NOMBRE_INM":"","COD_REGION":16,"REGIÓN":"REGIÓN DE ÑUBLE","COD_PROVIN":161,"PROVINCIA":"DIGUILLIN","COD_COMUNA":16101,"COMUNA":"CHILLÁN","DIRECCION":"ISABEL RIQUELME","NUMERO_DI":560,"LUGAR_REFE":"Y 542","LATITUD":-36.607693,"LONGITUD":-72.099698}},
{"type":"Feature","geometry":{"type":"Point","coordinates":[-72.099698,-36.607693]},"properties":{"AÑO":2020,"COD_INST":260,"TIPO_INST":"Centros de Formación Técnica","NOMBRE_INS":"CFT SANTO TOMÁS","NOMBRE_INM":"","COD_REGION":16,"REGIÓN":"REGIÓN DE ÑUBLE","COD_PROVIN":161,"PROVINCIA":"DIGUILLIN","COD_COMUNA":16101,"COMUNA":"CHILLÁN","DIRECCION":"ISABEL RIQUELME","NUMERO_DI":560,"LUGAR_REFE":"Y 542","LATITUD":-36.607693,"LONGITUD":-72.099698}},
{"type":"Feature","geometry":{"type":"Point","coordinates":[-72.102518,-36.60796]},"properties":{"AÑO":2020,"COD_INST":7,"TIPO_INST":"Universidades Privadas","NOMBRE_INS":"UNIVERSIDAD BOLIVARIANA","NOMBRE_INM":"SEDE CHILLAN","COD_REGION":16,"REGIÓN":"REGIÓN DE ÑUBLE","COD_PROVIN":161,"PROVINCIA":"DIGUILLIN","COD_COMUNA":16101,"COMUNA":"CHILLÁN","DIRECCION":"CONSTITUCION","NUMERO_DI":620,"LUGAR_REFE":"","LATITUD":-36.60796,"LONGITUD":-72.102518}},
{"type":"Feature","geometry":{"type":"Point","coordinates":[-72.089063,-36.608479]},"properties":{"AÑO":2020,"COD_INST":75,"TIPO_INST":"Universidades Estatales CRUCH","NOMBRE_INS":"UNIVERSIDAD DEL BÍO-BÍO","NOMBRE_INM":"OPERACIONES PRACTICAS","COD_REGION":16,"REGIÓN":"REGIÓN DE ÑUBLE","COD_PROVIN":161,"PROVINCIA":"DIGUILLIN","COD_COMUNA":16101,"COMUNA":"CHILLÁN","DIRECCION":"FRANCISCO RAMIREZ","NUMERO_DI":231,"LUGAR_REFE":"","LATITUD":-36.608479,"LONGITUD":-72.089063}},
{"type":"Feature","geometry":{"type":"Point","coordinates":[-72.0925729096339,-36.6088154899776]},"properties":{"AÑO":2020,"COD_INST":93,"TIPO_INST":"Universidades Privadas CRUCH","NOMBRE_INS":"UNIVERSIDAD CATÓLICA DE LA SANTÍSIMA CONCEPCIÓN","NOMBRE_INM":"CAMPUS CLINICO CHILLAN","COD_REGION":16,"REGIÓN":"REGIÓN DE ÑUBLE","COD_PROVIN":161,"PROVINCIA":"DIGUILLIN","COD_COMUNA":16101,"COMUNA":"CHILLÁN","DIRECCION":"FRANCISCO RAMIREZ","NUMERO_DI":10,"LUGAR_REFE":"","LATITUD":-36.608815,"LONGITUD":-72.092573}},
{"type":"Feature","geometry":{"type":"Point","coordinates":[-72.1071504685405,-36.609220220788]},"properties":{"AÑO":2020,"COD_INST":260,"TIPO_INST":"Centros de Formación Técnica","NOMBRE_INS":"CFT SANTO TOMÁS","NOMBRE_INM":"","COD_REGION":16,"REGIÓN":"REGIÓN DE ÑUBLE","COD_PROVIN":161,"PROVINCIA":"DIGUILLIN","COD_COMUNA":16101,"COMUNA":"CHILLÁN","DIRECCION":"MAIPON","NUMERO_DI":378,"LUGAR_REFE":"","LATITUD":-36.60922,"LONGITUD":-72.10715}},
{"type":"Feature","geometry":{"type":"Point","coordinates":[-71.997327,-36.637289]},"properties":{"AÑO":2020,"COD_INST":38,"TIPO_INST":"Universidades Privadas","NOMBRE_INS":"UNIVERSIDAD ADVENTISTA DE CHILE","NOMBRE_INM":"CAMPUS CHILLAN","COD_REGION":16,"REGIÓN":"REGIÓN DE ÑUBLE","COD_PROVIN":161,"PROVINCIA":"DIGUILLIN","COD_COMUNA":16101,"COMUNA":"CHILLÁN","DIRECCION":"CAMINO A TANILVORO","NUMERO_DI":12,"LUGAR_REFE":"KILOMETRO 12 S/N CAMINO A TANILVORO","LATITUD":-36.637289,"LONGITUD":-71.997327}},
{"type":"Feature","geometry":{"type":"Point","coordinates":[-70.673455,-33.204686]},"properties":{"AÑO":2020,"COD_INST":427,"TIPO_INST":"Centros de Formación Técnica","NOMBRE_INS":"CFT LAPLACE","NOMBRE_INM":"CASA CENTRAL","COD_REGION":13,"REGIÓN":"REGIÓN METROPOLITANA DE SANTIAGO","COD_PROVIN":133,"PROVINCIA":"CHACABUCO","COD_COMUNA":13301,"COMUNA":"COLINA","DIRECCION":"AVENIDA CONCEPCION","NUMERO_DI":264,"LUGAR_REFE":"","LATITUD":-33.204686,"LONGITUD":-70.673455}},
{"type":"Feature","geometry":{"type":"Point","coordinates":[-73.076034,-36.77972]},"properties":{"AÑO":2020,"COD_INST":139,"TIPO_INST":"Institutos Profesionales","NOMBRE_INS":"IP DR. VIRGINIO GÓMEZ G.","NOMBRE_INM":"CASA CENTRAL","COD_REGION":8,"REGIÓN":"REGIÓN DEL BIOBÍO","COD_PROVIN":81,"PROVINCIA":"CONCEPCIÓN","COD_COMUNA":8101,"COMUNA":"CONCEPCIÓN","DIRECCION":"ARTURO PRAT","NUMERO_DI":142,"LUGAR_REFE":"-148","LATITUD":-36.77972,"LONGITUD":-73.076034}},
{"type":"Feature","geometry":{"type":"Point","coordinates":[-73.074825,-36.781953]},"properties":{"AÑO":2020,"COD_INST":116,"TIPO_INST":"Institutos Profesionales","NOMBRE_INS":"IP SANTO TOMÁS","NOMBRE_INM":"","COD_REGION":8,"REGIÓN":"REGIÓN DEL BIOBÍO","COD_PROVIN":81,"PROVINCIA":"CONCEPCIÓN","COD_COMUNA":8101,"COMUNA":"CONCEPCIÓN","DIRECCION":"AVENIDA ARTURO PRAT","NUMERO_DI":927,"LUGAR_REFE":"","LATITUD":-36.781953,"LONGITUD":-73.074825}},
{"type":"Feature","geometry":{"type":"Point","coordinates":[-73.057905,-36.783263]},"properties":{"AÑO":2020,"COD_INST":93,"TIPO_INST":"Universidades Privadas CRUCH","NOMBRE_INS":"UNIVERSIDAD CATÓLICA DE LA SANTÍSIMA CONCEPCIÓN","NOMBRE_INM":"CAMPUS SAN ANDRES","COD_REGION":8,"REGIÓN":"REGIÓN DEL BIOBÍO","COD_PROVIN":81,"PROVINCIA":"CONCEPCIÓN","COD_COMUNA":8101,"COMUNA":"CONCEPCIÓN","DIRECCION":"ALONSO DE RIBERA","NUMERO_DI":2850,"LUGAR_REFE":"","LATITUD":-36.783263,"LONGITUD":-73.057905}},
{"type":"Feature","geometry":{"type":"Point","coordinates":[-73.057905,-36.783263]},"properties":{"AÑO":2020,"COD_INST":19,"TIPO_INST":"Universidades Privadas","NOMBRE_INS":"UNIVERSIDAD DE LAS AMÉRICAS","NOMBRE_INM":"ESTACION EXPERIMENTAL","COD_REGION":8,"REGIÓN":"REGIÓN DEL BIOBÍO","COD_PROVIN":81,"PROVINCIA":"CONCEPCIÓN","COD_COMUNA":8101,"COMUNA":"CONCEPCIÓN","DIRECCION":"PARCELA EL MAGNOLIO","NUMERO_DI":21,"LUGAR_REFE":"","LATITUD":-36.783263,"LONGITUD":-73.057905}},
{"type":"Feature","geometry":{"type":"Point","coordinates":[-73.058199,-36.78331]},"properties":{"AÑO":2020,"COD_INST":93,"TIPO_INST":"Universidades Privadas CRUCH","NOMBRE_INS":"UNIVERSIDAD CATÓLICA DE LA SANTÍSIMA CONCEPCIÓN","NOMBRE_INM":"CAMPUS SAN ANDRES","COD_REGION":8,"REGIÓN":"REGIÓN DEL BIOBÍO","COD_PROVIN":81,"PROVINCIA":"CONCEPCIÓN","COD_COMUNA":8101,"COMUNA":"CONCEPCIÓN","DIRECCION":"ALONSO DE RIBERA","NUMERO_DI":2556,"LUGAR_REFE":"","LATITUD":-36.78331,"LONGITUD":-73.058199}},
{"type":"Feature","geometry":{"type":"Point","coordinates":[-73.058028,-36.783338]},"properties":{"AÑO":2020,"COD_INST":19,"TIPO_INST":"Universidades Privadas","NOMBRE_INS":"UNIVERSIDAD DE LAS AMÉRICAS","NOMBRE_INM":"CAMPUS EL BOLDAL","COD_REGION":8,"REGIÓN":"REGIÓN DEL BIOBÍO","COD_PROVIN":81,"PROVINCIA":"CONCEPCIÓN","COD_COMUNA":8101,"COMUNA":"CONCEPCIÓN","DIRECCION":"JORGE ALESSANDRI","NUMERO_DI":1160,"LUGAR_REFE":"","LATITUD":-36.783338,"LONGITUD":-73.058028}},
{"type":"Feature","geometry":{"type":"Point","coordinates":[-73.058028,-36.783338]},"properties":{"AÑO":2020,"COD_INST":39,"TIPO_INST":"Universidades Privadas","NOMBRE_INS":"UNIVERSIDAD SAN SEBASTIÁN","NOMBRE_INM":"CAMPUS TRES PASCUALAS","COD_REGION":8,"REGIÓN":"REGIÓN DEL BIOBÍO","COD_PROVIN":81,"PROVINCIA":"CONCEPCIÓN","COD_COMUNA":8101,"COMUNA":"CONCEPCIÓN","DIRECCION":"LIENTUR","NUMERO_DI":1439,"LUGAR_REFE":"","LATITUD":-36.783338,"LONGITUD":-73.058028}},
{"type":"Feature","geometry":{"type":"Point","coordinates":[-73.061713,-36.795878]},"properties":{"AÑO":2020,"COD_INST":111,"TIPO_INST":"Institutos Profesionales","NOMBRE_INS":"IP DUOC UC","NOMBRE_INM":"CONCEPCION","COD_REGION":8,"REGIÓN":"REGIÓN DEL BIOBÍO","COD_PROVIN":81,"PROVINCIA":"CONCEPCIÓN","COD_COMUNA":8101,"COMUNA":"CONCEPCIÓN","DIRECCION":"PAICAVI","NUMERO_DI":3280,"LUGAR_REFE":"","LATITUD":-36.795878,"LONGITUD":-73.061713}},
{"type":"Feature","geometry":{"type":"Point","coordinates":[-73.058495,-36.797055]},"properties":{"AÑO":2020,"COD_INST":93,"TIPO_INST":"Universidades Privadas CRUCH","NOMBRE_INS":"UNIVERSIDAD CATÓLICA DE LA SANTÍSIMA CONCEPCIÓN","NOMBRE_INM":"CAMPUS SAN ANDRES","COD_REGION":8,"REGIÓN":"REGIÓN DEL BIOBÍO","COD_PROVIN":81,"PROVINCIA":"CONCEPCIÓN","COD_COMUNA":8101,"COMUNA":"CONCEPCIÓN","DIRECCION":"PAICAVI","NUMERO_DI":3200,"LUGAR_REFE":"","LATITUD":-36.797055,"LONGITUD":-73.058495}},
{"type":"Feature","geometry":{"type":"Point","coordinates":[-73.054966,-36.797615]},"properties":{"AÑO":2020,"COD_INST":93,"TIPO_INST":"Universidades Privadas CRUCH","NOMBRE_INS":"UNIVERSIDAD CATÓLICA DE LA SANTÍSIMA CONCEPCIÓN","NOMBRE_INM":"CAMPUS SAN ANDRES","COD_REGION":8,"REGIÓN":"REGIÓN DEL BIOBÍO","COD_PROVIN":81,"PROVINCIA":"CONCEPCIÓN","COD_COMUNA":8101,"COMUNA":"CONCEPCIÓN","DIRECCION":"PAICAVI","NUMERO_DI":3026,"LUGAR_REFE":"","LATITUD":-36.797615,"LONGITUD":-73.054966}},
{"type":"Feature","geometry":{"type":"Point","coordinates":[-73.029174,-36.815689]},"properties":{"AÑO":2020,"COD_INST":139,"TIPO_INST":"Institutos Profesionales","NOMBRE_INS":"IP DR. VIRGINIO GÓMEZ G.","NOMBRE_INM":"CASA CENTRAL","COD_REGION":8,"REGIÓN":"REGIÓN DEL BIOBÍO","COD_PROVIN":81,"PROVINCIA":"CONCEPCIÓN","COD_COMUNA":8101,"COMUNA":"CONCEPCIÓN","DIRECCION":"CHACABUCO","NUMERO_DI":21,"LUGAR_REFE":"-25","LATITUD":-36.815689,"LONGITUD":-73.029174}},
{"type":"Feature","geometry":{"type":"Point","coordinates":[-73.039329,-36.819712]},"properties":{"AÑO":2020,"COD_INST":13,"TIPO_INST":"Universidades Privadas","NOMBRE_INS":"UNIVERSIDAD SANTO TOMÁS","NOMBRE_INM":"","COD_REGION":8,"REGIÓN":"REGIÓN DEL BIOBÍO","COD_PROVIN":81,"PROVINCIA":"CONCEPCIÓN","COD_COMUNA":8101,"COMUNA":"CONCEPCIÓN","DIRECCION":"AVENIDA ARTURO PRAT","NUMERO_DI":879,"LUGAR_REFE":"","LATITUD":-36.819712,"LONGITUD":-73.039329}},
{"type":"Feature","geometry":{"type":"Point","coordinates":[-73.039329,-36.819712]},"properties":{"AÑO":2020,"COD_INST":45,"TIPO_INST":"Universidades Privadas","NOMBRE_INS":"UNIVERSIDAD DEL DESARROLLO","NOMBRE_INM":"ESTACIONAMIENTO 3  CLINICA JURIDICA","COD_REGION":8,"REGIÓN":"REGIÓN DEL BIOBÍO","COD_PROVIN":81,"PROVINCIA":"CONCEPCIÓN","COD_COMUNA":8101,"COMUNA":"CONCEPCIÓN","DIRECCION":"MAIPU","NUMERO_DI":1622,"LUGAR_REFE":"","LATITUD":-36.819712,"LONGITUD":-73.039329}},
{"type":"Feature","geometry":{"type":"Point","coordinates":[-73.037019,-36.820777]},"properties":{"AÑO":2020,"COD_INST":54,"TIPO_INST":"Universidades Privadas","NOMBRE_INS":"UNIVERSIDAD TECNOLÓGICA DE CHILE INACAP","NOMBRE_INM":"INACAP CONCEPCION - TALCAHUANO","COD_REGION":8,"REGIÓN":"REGIÓN DEL BIOBÍO","COD_PROVIN":81,"PROVINCIA":"CONCEPCIÓN","COD_COMUNA":8101,"COMUNA":"CONCEPCIÓN","DIRECCION":"AUTOPISTA CONCEPCION TALCAHUANO","NUMERO_DI":7421,"LUGAR_REFE":"","LATITUD":-36.820777,"LONGITUD":-73.037019}},
{"type":"Feature","geometry":{"type":"Point","coordinates":[-73.037019,-36.820777]},"properties":{"AÑO":2020,"COD_INST":45,"TIPO_INST":"Universidades Privadas","NOMBRE_INS":"UNIVERSIDAD DEL DESARROLLO","NOMBRE_INM":"CLINICA ODONTOLOGICA RECTOR ERNESTO SILVA BAFALLUY","COD_REGION":8,"REGIÓN":"REGIÓN DEL BIOBÍO","COD_PROVIN":81,"PROVINCIA":"CONCEPCIÓN","COD_COMUNA":8101,"COMUNA":"CONCEPCIÓN","DIRECCION":"BARROS ARANA","NUMERO_DI":1735,"LUGAR_REFE":"","LATITUD":-36.820777,"LONGITUD":-73.037019}},
{"type":"Feature","geometry":{"type":"Point","coordinates":[-73.049562,-36.820932]},"properties":{"AÑO":2020,"COD_INST":45,"TIPO_INST":"Universidades Privadas","NOMBRE_INS":"UNIVERSIDAD DEL DESARROLLO","NOMBRE_INM":"TALLERES DISEÑO CONTABILIDAD INFORMATICA","COD_REGION":8,"REGIÓN":"REGIÓN DEL BIOBÍO","COD_PROVIN":81,"PROVINCIA":"CONCEPCIÓN","COD_COMUNA":8101,"COMUNA":"CONCEPCIÓN","DIRECCION":"AINAVILLO","NUMERO_DI":451,"LUGAR_REFE":"","LATITUD":-36.820932,"LONGITUD":-73.049562}},
{"type":"Feature","geometry":{"type":"Point","coordinates":[-73.049562,-36.820932]},"properties":{"AÑO":2020,"COD_INST":13,"TIPO_INST":"Universidades Privadas","NOMBRE_INS":"UNIVERSIDAD SANTO TOMÁS","NOMBRE_INM":"","COD_REGION":8,"REGIÓN":"REGIÓN DEL BIOBÍO","COD_PROVIN":81,"PROVINCIA":"CONCEPCIÓN","COD_COMUNA":8101,"COMUNA":"CONCEPCIÓN","DIRECCION":"LAS HERAS","NUMERO_DI":935,"LUGAR_REFE":"","LATITUD":-36.820932,"LONGITUD":-73.049562}},
{"type":"Feature","geometry":{"type":"Point","coordinates":[-73.035964,-36.820962]},"properties":{"AÑO":2020,"COD_INST":87,"TIPO_INST":"Universidades Privadas CRUCH","NOMBRE_INS":"UNIVERSIDAD DE CONCEPCIÓN","NOMBRE_INM":"FACULTAD DE ENFERMERIA","COD_REGION":8,"REGIÓN":"REGIÓN DEL BIOBÍO","COD_PROVIN":81,"PROVINCIA":"CONCEPCIÓN","COD_COMUNA":8101,"COMUNA":"CONCEPCIÓN","DIRECCION":"AVENIDA ROOSEVELT","NUMERO_DI":1787,"LUGAR_REFE":"","LATITUD":-36.820962,"LONGITUD":-73.035964}},
{"type":"Feature","geometry":{"type":"Point","coordinates":[-73.036587,-36.821071]},"properties":{"AÑO":2020,"COD_INST":45,"TIPO_INST":"Universidades Privadas","NOMBRE_INS":"UNIVERSIDAD DEL DESARROLLO","NOMBRE_INM":"ESPACIO UNIVERSIDAD DEL DESARROLLO","COD_REGION":8,"REGIÓN":"REGIÓN DEL BIOBÍO","COD_PROVIN":81,"PROVINCIA":"CONCEPCIÓN","COD_COMUNA":8101,"COMUNA":"CONCEPCIÓN","DIRECCION":"BARROS ARANA","NUMERO_DI":1752,"LUGAR_REFE":"","LATITUD":-36.821071,"LONGITUD":-73.036587}},
{"type":"Feature","geometry":{"type":"Point","coordinates":[-73.03661,-36.821404]},"properties":{"AÑO":2020,"COD_INST":100,"TIPO_INST":"Institutos Profesionales","NOMBRE_INS":"IP INACAP","NOMBRE_INM":"INACAP CONCEPCION - TALCAHUANO","COD_REGION":8,"REGIÓN":"REGIÓN DEL BIOBÍO","COD_PROVIN":81,"PROVINCIA":"CONCEPCIÓN","COD_COMUNA":8101,"COMUNA":"CONCEPCIÓN","DIRECCION":"AUTOPISTA CONCEPCION TALCAHUANO","NUMERO_DI":7421,"LUGAR_REFE":"","LATITUD":-36.821404,"LONGITUD":-73.03661}},
{"type":"Feature","geometry":{"type":"Point","coordinates":[-73.036915,-36.821534]},"properties":{"AÑO":2020,"COD_INST":116,"TIPO_INST":"Institutos Profesionales","NOMBRE_INS":"IP SANTO TOMÁS","NOMBRE_INM":"","COD_REGION":8,"REGIÓN":"REGIÓN DEL BIOBÍO","COD_PROVIN":81,"PROVINCIA":"CONCEPCIÓN","COD_COMUNA":8101,"COMUNA":"CONCEPCIÓN","DIRECCION":"AVENIDA ARTURO PRAT","NUMERO_DI":879,"LUGAR_REFE":"","LATITUD":-36.821534,"LONGITUD":-73.036915}},
{"type":"Feature","geometry":{"type":"Point","coordinates":[-73.036524,-36.821547]},"properties":{"AÑO":2020,"COD_INST":430,"TIPO_INST":"Centros de Formación Técnica","NOMBRE_INS":"CFT INACAP","NOMBRE_INM":"INACAP CONCEPCION - TALCAHUANO","COD_REGION":8,"REGIÓN":"REGIÓN DEL BIOBÍO","COD_PROVIN":81,"PROVINCIA":"CONCEPCIÓN","COD_COMUNA":8101,"COMUNA":"CONCEPCIÓN","DIRECCION":"AUTOPISTA CONCEPCION TALCAHUANO","NUMERO_DI":7421,"LUGAR_REFE":"","LATITUD":-36.821547,"LONGITUD":-73.036524}},
{"type":"Feature","geometry":{"type":"Point","coordinates":[-73.036829,-36.821659]},"properties":{"AÑO":2020,"COD_INST":116,"TIPO_INST":"Institutos Profesionales","NOMBRE_INS":"IP SANTO TOMÁS","NOMBRE_INM":"","COD_REGION":8,"REGIÓN":"REGIÓN DEL BIOBÍO","COD_PROVIN":81,"PROVINCIA":"CONCEPCIÓN","COD_COMUNA":8101,"COMUNA":"CONCEPCIÓN","DIRECCION":"AVENIDA ARTURO PRAT","NUMERO_DI":825,"LUGAR_REFE":"","LATITUD":-36.821659,"LONGITUD":-73.036829}},
{"type":"Feature","geometry":{"type":"Point","coordinates":[-73.013316,-36.822494]},"properties":{"AÑO":2020,"COD_INST":75,"TIPO_INST":"Universidades Estatales CRUCH","NOMBRE_INS":"UNIVERSIDAD DEL BÍO-BÍO","NOMBRE_INM":"CAMPUS CONCEPCION","COD_REGION":8,"REGIÓN":"REGIÓN DEL BIOBÍO","COD_PROVIN":81,"PROVINCIA":"CONCEPCIÓN","COD_COMUNA":8101,"COMUNA":"CONCEPCIÓN","DIRECCION":"AVENIDA COLLAO","NUMERO_DI":1202,"LUGAR_REFE":"","LATITUD":-36.822494,"LONGITUD":-73.013316}},
{"type":"Feature","geometry":{"type":"Point","coordinates":[-73.03839,-36.822657]},"properties":{"AÑO":2020,"COD_INST":113,"TIPO_INST":"Institutos Profesionales","NOMBRE_INS":"IP IPG","NOMBRE_INM":"SEDE CONCEPCION","COD_REGION":8,"REGIÓN":"REGIÓN DEL BIOBÍO","COD_PROVIN":81,"PROVINCIA":"CONCEPCIÓN","COD_COMUNA":8101,"COMUNA":"CONCEPCIÓN","DIRECCION":"OHIGGINS","NUMERO_DI":1565,"LUGAR_REFE":"","LATITUD":-36.822657,"LONGITUD":-73.03839}},
{"type":"Feature","geometry":{"type":"Point","coordinates":[-73.039042,-36.823929]},"properties":{"AÑO":2020,"COD_INST":260,"TIPO_INST":"Centros de Formación Técnica","NOMBRE_INS":"CFT SANTO TOMÁS","NOMBRE_INM":"","COD_REGION":8,"REGIÓN":"REGIÓN DEL BIOBÍO","COD_PROVIN":81,"PROVINCIA":"CONCEPCIÓN","COD_COMUNA":8101,"COMUNA":"CONCEPCIÓN","DIRECCION":"SAN MARTIN","NUMERO_DI":1463,"LUGAR_REFE":"","LATITUD":-36.823929,"LONGITUD":-73.039042}},
{"type":"Feature","geometry":{"type":"Point","coordinates":[-73.038138,-36.825054]},"properties":{"AÑO":2020,"COD_INST":87,"TIPO_INST":"Universidades Privadas CRUCH","NOMBRE_INS":"UNIVERSIDAD DE CONCEPCIÓN","NOMBRE_INM":"FACULTAD DE MEDICINA","COD_REGION":8,"REGIÓN":"REGIÓN DEL BIOBÍO","COD_PROVIN":81,"PROVINCIA":"CONCEPCIÓN","COD_COMUNA":8101,"COMUNA":"CONCEPCIÓN","DIRECCION":"JANEQUEO","NUMERO_DI":200,"LUGAR_REFE":"","LATITUD":-36.825054,"LONGITUD":-73.038138}},
{"type":"Feature","geometry":{"type":"Point","coordinates":[-73.036735,-36.825328]},"properties":{"AÑO":2020,"COD_INST":87,"TIPO_INST":"Universidades Privadas CRUCH","NOMBRE_INS":"UNIVERSIDAD DE CONCEPCIÓN","NOMBRE_INM":"EDIFICIO FACULTAD AGRONOMIA","COD_REGION":8,"REGIÓN":"REGIÓN DEL BIOBÍO","COD_PROVIN":81,"PROVINCIA":"CONCEPCIÓN","COD_COMUNA":8101,"COMUNA":"CONCEPCIÓN","DIRECCION":"AVENIDA ROOSEVELT","NUMERO_DI":1550,"LUGAR_REFE":"HIJUELA 1A CAMPUS","LATITUD":-36.825328,"LONGITUD":-73.036735}},
{"type":"Feature","geometry":{"type":"Point","coordinates":[-73.03963,-36.825359]},"properties":{"AÑO":2020,"COD_INST":87,"TIPO_INST":"Universidades Privadas CRUCH","NOMBRE_INS":"UNIVERSIDAD DE CONCEPCIÓN","NOMBRE_INM":"FACULTAD DE SALUD FAMILIAR","COD_REGION":8,"REGIÓN":"REGIÓN DEL BIOBÍO","COD_PROVIN":81,"PROVINCIA":"CONCEPCIÓN","COD_COMUNA":8101,"COMUNA":"CONCEPCIÓN","DIRECCION":"JANEQUEO","NUMERO_DI":239,"LUGAR_REFE":"","LATITUD":-36.825359,"LONGITUD":-73.03963}},
{"type":"Feature","geometry":{"type":"Point","coordinates":[-73.040999,-36.82558]},"properties":{"AÑO":2020,"COD_INST":75,"TIPO_INST":"Universidades Estatales CRUCH","NOMBRE_INS":"UNIVERSIDAD DEL BÍO-BÍO","NOMBRE_INM":"LAURENCIA CONTRERAS","COD_REGION":8,"REGIÓN":"REGIÓN DEL BIOBÍO","COD_PROVIN":81,"PROVINCIA":"CONCEPCIÓN","COD_COMUNA":8101,"COMUNA":"CONCEPCIÓN","DIRECCION":"AVENIDA PAICAVI","NUMERO_DI":267,"LUGAR_REFE":"","LATITUD":-36.82558,"LONGITUD":-73.040999}},
{"type":"Feature","geometry":{"type":"Point","coordinates":[-73.061954,-36.825791]},"properties":{"AÑO":2020,"COD_INST":260,"TIPO_INST":"Centros de Formación Técnica","NOMBRE_INS":"CFT SANTO TOMÁS","NOMBRE_INM":"","COD_REGION":8,"REGIÓN":"REGIÓN DEL BIOBÍO","COD_PROVIN":81,"PROVINCIA":"CONCEPCIÓN","COD_COMUNA":8101,"COMUNA":"CONCEPCIÓN","DIRECCION":"AVENIDA ARTURO PRAT","NUMERO_DI":927,"LUGAR_REFE":"","LATITUD":-36.825791,"LONGITUD":-73.061954}},
{"type":"Feature","geometry":{"type":"Point","coordinates":[-73.043441,-36.82589]},"properties":{"AÑO":2020,"COD_INST":45,"TIPO_INST":"Universidades Privadas","NOMBRE_INS":"UNIVERSIDAD DEL DESARROLLO","NOMBRE_INM":"EDIFICIO CASA MATRIZ 1","COD_REGION":8,"REGIÓN":"REGIÓN DEL BIOBÍO","COD_PROVIN":81,"PROVINCIA":"CONCEPCIÓN","COD_COMUNA":8101,"COMUNA":"CONCEPCIÓN","DIRECCION":"AINAVILLO","NUMERO_DI":456,"LUGAR_REFE":"","LATITUD":-36.82589,"LONGITUD":-73.043441}},
{"type":"Feature","geometry":{"type":"Point","coordinates":[-73.043441,-36.82589]},"properties":{"AÑO":2020,"COD_INST":7,"TIPO_INST":"Universidades Privadas","NOMBRE_INS":"UNIVERSIDAD BOLIVARIANA","NOMBRE_INM":"SEDE CONCEPCION","COD_REGION":8,"REGIÓN":"REGIÓN DEL BIOBÍO","COD_PROVIN":81,"PROVINCIA":"CONCEPCIÓN","COD_COMUNA":8101,"COMUNA":"CONCEPCIÓN","DIRECCION":"DIAGONAL PEDRO AGUIRRE CERDA","NUMERO_DI":1129,"LUGAR_REFE":"PISO 2 Y 3","LATITUD":-36.82589,"LONGITUD":-73.043441}},
{"type":"Feature","geometry":{"type":"Point","coordinates":[-73.05623,-36.825958]},"properties":{"AÑO":2020,"COD_INST":120,"TIPO_INST":"Institutos Profesionales","NOMBRE_INS":"IP DIEGO PORTALES","NOMBRE_INM":"INSTITUTO PROFESIONAL DIEGO PORTALES","COD_REGION":8,"REGIÓN":"REGIÓN DEL BIOBÍO","COD_PROVIN":81,"PROVINCIA":"CONCEPCIÓN","COD_COMUNA":8101,"COMUNA":"CONCEPCIÓN","DIRECCION":"MAIPU","NUMERO_DI":301,"LUGAR_REFE":"","LATITUD":-36.825958,"LONGITUD":-73.05623}},
{"type":"Feature","geometry":{"type":"Point","coordinates":[-73.061202,-36.826733]},"properties":{"AÑO":2020,"COD_INST":45,"TIPO_INST":"Universidades Privadas","NOMBRE_INS":"UNIVERSIDAD DEL DESARROLLO","NOMBRE_INM":"VICERECTORIA ECONOMICA","COD_REGION":8,"REGIÓN":"REGIÓN DEL BIOBÍO","COD_PROVIN":81,"PROVINCIA":"CONCEPCIÓN","COD_COMUNA":8101,"COMUNA":"CONCEPCIÓN","DIRECCION":"AINAVILLO","NUMERO_DI":455,"LUGAR_REFE":"","LATITUD":-36.826733,"LONGITUD":-73.061202}},
{"type":"Feature","geometry":{"type":"Point","coordinates":[-73.061202,-36.826733]},"properties":{"AÑO":2020,"COD_INST":260,"TIPO_INST":"Centros de Formación Técnica","NOMBRE_INS":"CFT SANTO TOMÁS","NOMBRE_INM":"","COD_REGION":8,"REGIÓN":"REGIÓN DEL BIOBÍO","COD_PROVIN":81,"PROVINCIA":"CONCEPCIÓN","COD_COMUNA":8101,"COMUNA":"CONCEPCIÓN","DIRECCION":"AVENIDA ARTURO PRAT","NUMERO_DI":879,"LUGAR_REFE":"","LATITUD":-36.826733,"LONGITUD":-73.061202}},
{"type":"Feature","geometry":{"type":"Point","coordinates":[-73.061325,-36.826789]},"properties":{"AÑO":2020,"COD_INST":45,"TIPO_INST":"Universidades Privadas","NOMBRE_INS":"UNIVERSIDAD DEL DESARROLLO","NOMBRE_INM":"EDIFICIO CASA MATRIZ 2","COD_REGION":8,"REGIÓN":"REGIÓN DEL BIOBÍO","COD_PROVIN":81,"PROVINCIA":"CONCEPCIÓN","COD_COMUNA":8101,"COMUNA":"CONCEPCIÓN","DIRECCION":"AINAVILLO","NUMERO_DI":442,"LUGAR_REFE":"","LATITUD":-36.826789,"LONGITUD":-73.061325}},
{"type":"Feature","geometry":{"type":"Point","coordinates":[-73.061325,-36.826789]},"properties":{"AÑO":2020,"COD_INST":13,"TIPO_INST":"Universidades Privadas","NOMBRE_INS":"UNIVERSIDAD SANTO TOMÁS","NOMBRE_INM":"","COD_REGION":8,"REGIÓN":"REGIÓN DEL BIOBÍO","COD_PROVIN":81,"PROVINCIA":"CONCEPCIÓN","COD_COMUNA":8101,"COMUNA":"CONCEPCIÓN","DIRECCION":"AVENIDA ARTURO PRAT","NUMERO_DI":825,"LUGAR_REFE":"","LATITUD":-36.826789,"LONGITUD":-73.061325}},
{"type":"Feature","geometry":{"type":"Point","coordinates":[-73.061325,-36.826789]},"properties":{"AÑO":2020,"COD_INST":260,"TIPO_INST":"Centros de Formación Técnica","NOMBRE_INS":"CFT SANTO TOMÁS","NOMBRE_INM":"","COD_REGION":8,"REGIÓN":"REGIÓN DEL BIOBÍO","COD_PROVIN":81,"PROVINCIA":"CONCEPCIÓN","COD_COMUNA":8101,"COMUNA":"CONCEPCIÓN","DIRECCION":"AVENIDA ARTURO PRAT","NUMERO_DI":825,"LUGAR_REFE":"","LATITUD":-36.826789,"LONGITUD":-73.061325}},
{"type":"Feature","geometry":{"type":"Point","coordinates":[-73.040071,-36.827469]},"properties":{"AÑO":2020,"COD_INST":87,"TIPO_INST":"Universidades Privadas CRUCH","NOMBRE_INS":"UNIVERSIDAD DE CONCEPCIÓN","NOMBRE_INM":"EDIFICIO ENNIO VIVALDI","COD_REGION":8,"REGIÓN":"REGIÓN DEL BIOBÍO","COD_PROVIN":81,"PROVINCIA":"CONCEPCIÓN","COD_COMUNA":8101,"COMUNA":"CONCEPCIÓN","DIRECCION":"AVENIDA CHACABUCO","NUMERO_DI":1356,"LUGAR_REFE":"HIJUELA 1A CAMPUS","LATITUD":-36.827469,"LONGITUD":-73.040071}},
{"type":"Feature","geometry":{"type":"Point","coordinates":[-73.040071,-36.827469]},"properties":{"AÑO":2020,"COD_INST":87,"TIPO_INST":"Universidades Privadas CRUCH","NOMBRE_INS":"UNIVERSIDAD DE CONCEPCIÓN","NOMBRE_INM":"EDIFICIO INGENIERIA EN MINAS","COD_REGION":8,"REGIÓN":"REGIÓN DEL BIOBÍO","COD_PROVIN":81,"PROVINCIA":"CONCEPCIÓN","COD_COMUNA":8101,"COMUNA":"CONCEPCIÓN","DIRECCION":"AVENIDA CHACABUCO","NUMERO_DI":1356,"LUGAR_REFE":"HIJUELA 4A CAMPUS","LATITUD":-36.827469,"LONGITUD":-73.040071}},
{"type":"Feature","geometry":{"type":"Point","coordinates":[-73.040071,-36.827469]},"properties":{"AÑO":2020,"COD_INST":87,"TIPO_INST":"Universidades Privadas CRUCH","NOMBRE_INS":"UNIVERSIDAD DE CONCEPCIÓN","NOMBRE_INM":"FACULTAD CIENCIAS FISICAS Y MATEMATICAS","COD_REGION":8,"REGIÓN":"REGIÓN DEL BIOBÍO","COD_PROVIN":81,"PROVINCIA":"CONCEPCIÓN","COD_COMUNA":8101,"COMUNA":"CONCEPCIÓN","DIRECCION":"AVENIDA CHACABUCO","NUMERO_DI":1356,"LUGAR_REFE":"HIJUELA 3A CAMPUS","LATITUD":-36.827469,"LONGITUD":-73.040071}},
{"type":"Feature","geometry":{"type":"Point","coordinates":[-73.040071,-36.827469]},"properties":{"AÑO":2020,"COD_INST":87,"TIPO_INST":"Universidades Privadas CRUCH","NOMBRE_INS":"UNIVERSIDAD DE CONCEPCIÓN","NOMBRE_INM":"FACULTAD CIENCIAS JURIDICAS Y SOCIALES","COD_REGION":8,"REGIÓN":"REGIÓN DEL BIOBÍO","COD_PROVIN":81,"PROVINCIA":"CONCEPCIÓN","COD_COMUNA":8101,"COMUNA":"CONCEPCIÓN","DIRECCION":"AVENIDA CHACABUCO","NUMERO_DI":1356,"LUGAR_REFE":"HIJUELA 2 CAMPUS","LATITUD":-36.827469,"LONGITUD":-73.040071}},
{"type":"Feature","geometry":{"type":"Point","coordinates":[-73.040071,-36.827469]},"properties":{"AÑO":2020,"COD_INST":87,"TIPO_INST":"Universidades Privadas CRUCH","NOMBRE_INS":"UNIVERSIDAD DE CONCEPCIÓN","NOMBRE_INM":"FACULTAD CIENCIAS SOCIALES","COD_REGION":8,"REGIÓN":"REGIÓN DEL BIOBÍO","COD_PROVIN":81,"PROVINCIA":"CONCEPCIÓN","COD_COMUNA":8101,"COMUNA":"CONCEPCIÓN","DIRECCION":"AVENIDA CHACABUCO","NUMERO_DI":1356,"LUGAR_REFE":"HIJUELA 5A CAMPUS","LATITUD":-36.827469,"LONGITUD":-73.040071}},
{"type":"Feature","geometry":{"type":"Point","coordinates":[-73.040071,-36.827469]},"properties":{"AÑO":2020,"COD_INST":87,"TIPO_INST":"Universidades Privadas CRUCH","NOMBRE_INS":"UNIVERSIDAD DE CONCEPCIÓN","NOMBRE_INM":"FACULTAD CIENCIAS VETERINARIAS","COD_REGION":8,"REGIÓN":"REGIÓN DEL BIOBÍO","COD_PROVIN":81,"PROVINCIA":"CONCEPCIÓN","COD_COMUNA":8101,"COMUNA":"CONCEPCIÓN","DIRECCION":"AVENIDA CHACABUCO","NUMERO_DI":1356,"LUGAR_REFE":"HIJUELA 6A CAMPUS","LATITUD":-36.827469,"LONGITUD":-73.040071}},
{"type":"Feature","geometry":{"type":"Point","coordinates":[-73.050066,-36.828099]},"properties":{"AÑO":2020,"COD_INST":93,"TIPO_INST":"Universidades Privadas CRUCH","NOMBRE_INS":"UNIVERSIDAD CATÓLICA DE LA SANTÍSIMA CONCEPCIÓN","NOMBRE_INM":"OFICINAS FONDO DE CREDITO","COD_REGION":8,"REGIÓN":"REGIÓN DEL BIOBÍO","COD_PROVIN":81,"PROVINCIA":"CONCEPCIÓN","COD_COMUNA":8101,"COMUNA":"CONCEPCIÓN","DIRECCION":"OHIGGINS","NUMERO_DI":630,"LUGAR_REFE":"DEPARTAMENTO 302","LATITUD":-36.828099,"LONGITUD":-73.050066}},
{"type":"Feature","geometry":{"type":"Point","coordinates":[-73.054747,-36.828498]},"properties":{"AÑO":2020,"COD_INST":143,"TIPO_INST":"Institutos Profesionales","NOMBRE_INS":"IP AIEP","NOMBRE_INM":"SEDE CONCEPCION BARROS ARANA","COD_REGION":8,"REGIÓN":"REGIÓN DEL BIOBÍO","COD_PROVIN":81,"PROVINCIA":"CONCEPCIÓN","COD_COMUNA":8101,"COMUNA":"CONCEPCIÓN","DIRECCION":"BARROS ARANA","NUMERO_DI":302,"LUGAR_REFE":"","LATITUD":-36.828498,"LONGITUD":-73.054747}},
{"type":"Feature","geometry":{"type":"Point","coordinates":[-73.055987,-36.828499]},"properties":{"AÑO":2020,"COD_INST":176,"TIPO_INST":"Institutos Profesionales","NOMBRE_INS":"IP VALLE CENTRAL","NOMBRE_INM":"SEDE CONCEPCION","COD_REGION":8,"REGIÓN":"REGIÓN DEL BIOBÍO","COD_PROVIN":81,"PROVINCIA":"CONCEPCIÓN","COD_COMUNA":8101,"COMUNA":"CONCEPCIÓN","DIRECCION":"BARROS ARANA","NUMERO_DI":231,"LUGAR_REFE":"","LATITUD":-36.828499,"LONGITUD":-73.055987}},
{"type":"Feature","geometry":{"type":"Point","coordinates":[-73.055987,-36.828499]},"properties":{"AÑO":2020,"COD_INST":258,"TIPO_INST":"CENTROS DE FORMACIÓN TÉCNICA","NOMBRE_INS":"CFT BARROS ARANA","NOMBRE_INM":"CENTRO DE FORMACION TECNICA BARROS ARANA","COD_REGION":8,"REGIÓN":"REGIÓN DEL BIOBÍO","COD_PROVIN":81,"PROVINCIA":"CONCEPCIÓN","COD_COMUNA":8101,"COMUNA":"CONCEPCIÓN","DIRECCION":"BARROS ARANA","NUMERO_DI":231,"LUGAR_REFE":"","LATITUD":-36.828499,"LONGITUD":-73.055987}},
{"type":"Feature","geometry":{"type":"Point","coordinates":[-73.039247,-36.828771]},"properties":{"AÑO":2020,"COD_INST":87,"TIPO_INST":"Universidades Privadas CRUCH","NOMBRE_INS":"UNIVERSIDAD DE CONCEPCIÓN","NOMBRE_INM":"DIRECCION DE DOCENCIA","COD_REGION":8,"REGIÓN":"REGIÓN DEL BIOBÍO","COD_PROVIN":81,"PROVINCIA":"CONCEPCIÓN","COD_COMUNA":8101,"COMUNA":"CONCEPCIÓN","DIRECCION":"EDMUNDO LARENAS","NUMERO_DI":64,"LUGAR_REFE":"A","LATITUD":-36.828771,"LONGITUD":-73.039247}},
{"type":"Feature","geometry":{"type":"Point","coordinates":[-73.039937,-36.829152]},"properties":{"AÑO":2020,"COD_INST":87,"TIPO_INST":"Universidades Privadas CRUCH","NOMBRE_INS":"UNIVERSIDAD DE CONCEPCIÓN","NOMBRE_INM":"DEPARTAMENTO DE  FILOSOFIA","COD_REGION":8,"REGIÓN":"REGIÓN DEL BIOBÍO","COD_PROVIN":81,"PROVINCIA":"CONCEPCIÓN","COD_COMUNA":8101,"COMUNA":"CONCEPCIÓN","DIRECCION":"CALLE BELTRAN MATHIEU","NUMERO_DI":15,"LUGAR_REFE":"A","LATITUD":-36.829152,"LONGITUD":-73.039937}},
{"type":"Feature","geometry":{"type":"Point","coordinates":[-73.041309,-36.829167]},"properties":{"AÑO":2020,"COD_INST":87,"TIPO_INST":"Universidades Privadas CRUCH","NOMBRE_INS":"UNIVERSIDAD DE CONCEPCIÓN","NOMBRE_INM":"FACULTAD DE ENFERMERIA","COD_REGION":8,"REGIÓN":"REGIÓN DEL BIOBÍO","COD_PROVIN":81,"PROVINCIA":"CONCEPCIÓN","COD_COMUNA":8101,"COMUNA":"CONCEPCIÓN","DIRECCION":"AVENIDA VICTOR LAMAS","NUMERO_DI":1133,"LUGAR_REFE":"","LATITUD":-36.829167,"LONGITUD":-73.041309}},
{"type":"Feature","geometry":{"type":"Point","coordinates":[-73.040846,-36.829454]},"properties":{"AÑO":2020,"COD_INST":103,"TIPO_INST":"Institutos Profesionales","NOMBRE_INS":"IP INSTITUTO DE ESTUDIOS BANCARIOS GUILLERMO SUBERCASEAUX","NOMBRE_INM":"SEDE CONCEPCION","COD_REGION":8,"REGIÓN":"REGIÓN DEL BIOBÍO","COD_PROVIN":81,"PROVINCIA":"CONCEPCIÓN","COD_COMUNA":8101,"COMUNA":"CONCEPCIÓN","DIRECCION":"VICTOR LAMAS","NUMERO_DI":1150,"LUGAR_REFE":"","LATITUD":-36.829454,"LONGITUD":-73.040846}},
{"type":"Feature","geometry":{"type":"Point","coordinates":[-73.055147,-36.829461]},"properties":{"AÑO":2020,"COD_INST":103,"TIPO_INST":"Institutos Profesionales","NOMBRE_INS":"IP INSTITUTO DE ESTUDIOS BANCARIOS GUILLERMO SUBERCASEAUX","NOMBRE_INM":"SEDE CONCEPCION","COD_REGION":8,"REGIÓN":"REGIÓN DEL BIOBÍO","COD_PROVIN":81,"PROVINCIA":"CONCEPCIÓN","COD_COMUNA":8101,"COMUNA":"CONCEPCIÓN","DIRECCION":"LIBERADOR BERNARDO OHIGGINS","NUMERO_DI":241,"LUGAR_REFE":"OF 704","LATITUD":-36.829461,"LONGITUD":-73.055147}},
{"type":"Feature","geometry":{"type":"Point","coordinates":[-73.03862,-36.829806]},"properties":{"AÑO":2020,"COD_INST":87,"TIPO_INST":"Universidades Privadas CRUCH","NOMBRE_INS":"UNIVERSIDAD DE CONCEPCIÓN","NOMBRE_INM":"DEPARTAMENTO CIENCIAS POLITICAS  SALAS DE CLASES","COD_REGION":8,"REGIÓN":"REGIÓN DEL BIOBÍO","COD_PROVIN":81,"PROVINCIA":"CONCEPCIÓN","COD_COMUNA":8101,"COMUNA":"CONCEPCIÓN","DIRECCION":"EDMUNDO LARENAS","NUMERO_DI":140,"LUGAR_REFE":"","LATITUD":-36.829806,"LONGITUD":-73.03862}},
{"type":"Feature","geometry":{"type":"Point","coordinates":[-73.038532,-36.829937]},"properties":{"AÑO":2020,"COD_INST":87,"TIPO_INST":"Universidades Privadas CRUCH","NOMBRE_INS":"UNIVERSIDAD DE CONCEPCIÓN","NOMBRE_INM":"DEPARTAMENTO CIENCIAS POLITICAS  SALAS DE CLASES","COD_REGION":8,"REGIÓN":"REGIÓN DEL BIOBÍO","COD_PROVIN":81,"PROVINCIA":"CONCEPCIÓN","COD_COMUNA":8101,"COMUNA":"CONCEPCIÓN","DIRECCION":"EDMUNDO LARENAS","NUMERO_DI":160,"LUGAR_REFE":"","LATITUD":-36.829937,"LONGITUD":-73.038532}},
{"type":"Feature","geometry":{"type":"Point","coordinates":[-73.039837,-36.830537]},"properties":{"AÑO":2020,"COD_INST":87,"TIPO_INST":"Universidades Privadas CRUCH","NOMBRE_INS":"UNIVERSIDAD DE CONCEPCIÓN","NOMBRE_INM":"DEPARTAMENTO DE MUSICA  SALAS DE CLASES","COD_REGION":8,"REGIÓN":"REGIÓN DEL BIOBÍO","COD_PROVIN":81,"PROVINCIA":"CONCEPCIÓN","COD_COMUNA":8101,"COMUNA":"CONCEPCIÓN","DIRECCION":"BELTRAN MATHIEU","NUMERO_DI":170,"LUGAR_REFE":"","LATITUD":-36.830537,"LONGITUD":-73.039837}},
{"type":"Feature","geometry":{"type":"Point","coordinates":[-73.052218,-36.830602]},"properties":{"AÑO":2020,"COD_INST":93,"TIPO_INST":"Universidades Privadas CRUCH","NOMBRE_INS":"UNIVERSIDAD CATÓLICA DE LA SANTÍSIMA CONCEPCIÓN","NOMBRE_INM":"CAMPUS SANTO DOMINGO","COD_REGION":8,"REGIÓN":"REGIÓN DEL BIOBÍO","COD_PROVIN":81,"PROVINCIA":"CONCEPCIÓN","COD_COMUNA":8101,"COMUNA":"CONCEPCIÓN","DIRECCION":"LINCOYAN","NUMERO_DI":255,"LUGAR_REFE":"","LATITUD":-36.830602,"LONGITUD":-73.052218}},
{"type":"Feature","geometry":{"type":"Point","coordinates":[-73.0366174912158,-36.8307325232222]},"properties":{"AÑO":2020,"COD_INST":87,"TIPO_INST":"Universidades Privadas CRUCH","NOMBRE_INS":"UNIVERSIDAD DE CONCEPCIÓN","NOMBRE_INM":"EDIFICIO CENTRAL FACULTAD DE INGENIERIA","COD_REGION":8,"REGIÓN":"REGIÓN DEL BIOBÍO","COD_PROVIN":81,"PROVINCIA":"CONCEPCIÓN","COD_COMUNA":8101,"COMUNA":"CONCEPCIÓN","DIRECCION":"EDMUNDO LARENAS","NUMERO_DI":219,"LUGAR_REFE":"CAMPUS","LATITUD":-36.830733,"LONGITUD":-73.036617}},
{"type":"Feature","geometry":{"type":"Point","coordinates":[-73.049613,-36.830776]},"properties":{"AÑO":2020,"COD_INST":93,"TIPO_INST":"Universidades Privadas CRUCH","NOMBRE_INS":"UNIVERSIDAD CATÓLICA DE LA SANTÍSIMA CONCEPCIÓN","NOMBRE_INM":"CASA DOCTORADO EN EDUCACION","COD_REGION":8,"REGIÓN":"REGIÓN DEL BIOBÍO","COD_PROVIN":81,"PROVINCIA":"CONCEPCIÓN","COD_COMUNA":8101,"COMUNA":"CONCEPCIÓN","DIRECCION":"ALONSO DE OVALLE","NUMERO_DI":283,"LUGAR_REFE":"LOMAS DE SAN ANDRES","LATITUD":-36.830776,"LONGITUD":-73.049613}},
{"type":"Feature","geometry":{"type":"Point","coordinates":[-73.049613,-36.830776]},"properties":{"AÑO":2020,"COD_INST":19,"TIPO_INST":"Universidades Privadas","NOMBRE_INS":"UNIVERSIDAD DE LAS AMÉRICAS","NOMBRE_INM":"CAMPUS CHACABUCO","COD_REGION":8,"REGIÓN":"REGIÓN DEL BIOBÍO","COD_PROVIN":81,"PROVINCIA":"CONCEPCIÓN","COD_COMUNA":8101,"COMUNA":"CONCEPCIÓN","DIRECCION":"CHACABUCO","NUMERO_DI":539,"LUGAR_REFE":"","LATITUD":-36.830776,"LONGITUD":-73.049613}},
{"type":"Feature","geometry":{"type":"Point","coordinates":[-73.03802,-36.830895]},"properties":{"AÑO":2020,"COD_INST":87,"TIPO_INST":"Universidades Privadas CRUCH","NOMBRE_INS":"UNIVERSIDAD DE CONCEPCIÓN","NOMBRE_INM":"SALA REDOC","COD_REGION":8,"REGIÓN":"REGIÓN DEL BIOBÍO","COD_PROVIN":81,"PROVINCIA":"CONCEPCIÓN","COD_COMUNA":8101,"COMUNA":"CONCEPCIÓN","DIRECCION":"EDMUNDO LARENAS","NUMERO_DI":234,"LUGAR_REFE":"","LATITUD":-36.830895,"LONGITUD":-73.03802}},
{"type":"Feature","geometry":{"type":"Point","coordinates":[-73.03794,-36.83102]},"properties":{"AÑO":2020,"COD_INST":87,"TIPO_INST":"Universidades Privadas CRUCH","NOMBRE_INS":"UNIVERSIDAD DE CONCEPCIÓN","NOMBRE_INM":"DEPARTAMENTO CIENCIAS HISTORICAS Y SOCIALES  SALAS DE CLASES","COD_REGION":8,"REGIÓN":"REGIÓN DEL BIOBÍO","COD_PROVIN":81,"PROVINCIA":"CONCEPCIÓN","COD_COMUNA":8101,"COMUNA":"CONCEPCIÓN","DIRECCION":"EDMUNDO LARENAS","NUMERO_DI":240,"LUGAR_REFE":"","LATITUD":-36.83102,"LONGITUD":-73.03794}},
{"type":"Feature","geometry":{"type":"Point","coordinates":[-73.056843,-36.832158]},"properties":{"AÑO":2020,"COD_INST":143,"TIPO_INST":"Institutos Profesionales","NOMBRE_INS":"IP AIEP","NOMBRE_INM":"SEDE CONCEPCION AVENIDA PRAT","COD_REGION":8,"REGIÓN":"REGIÓN DEL BIOBÍO","COD_PROVIN":81,"PROVINCIA":"CONCEPCIÓN","COD_COMUNA":8101,"COMUNA":"CONCEPCIÓN","DIRECCION":"AVENIDA PRAT","NUMERO_DI":288,"LUGAR_REFE":"","LATITUD":-36.832158,"LONGITUD":-73.056843}},
{"type":"Feature","geometry":{"type":"Point","coordinates":[-73.03652,-36.832489]},"properties":{"AÑO":2020,"COD_INST":87,"TIPO_INST":"Universidades Privadas CRUCH","NOMBRE_INS":"UNIVERSIDAD DE CONCEPCIÓN","NOMBRE_INM":"CENTRO DE REHABILITACION ORAL E IMPLANTOLOGIA","COD_REGION":8,"REGIÓN":"REGIÓN DEL BIOBÍO","COD_PROVIN":81,"PROVINCIA":"CONCEPCIÓN","COD_COMUNA":8101,"COMUNA":"CONCEPCIÓN","DIRECCION":"VICTORIA","NUMERO_DI":232,"LUGAR_REFE":"","LATITUD":-36.832489,"LONGITUD":-73.03652}},
{"type":"Feature","geometry":{"type":"Point","coordinates":[-73.055053,-36.83264]},"properties":{"AÑO":2020,"COD_INST":139,"TIPO_INST":"Institutos Profesionales","NOMBRE_INS":"IP DR. VIRGINIO GÓMEZ G.","NOMBRE_INM":"CASA CENTRAL","COD_REGION":8,"REGIÓN":"REGIÓN DEL BIOBÍO","COD_PROVIN":81,"PROVINCIA":"CONCEPCIÓN","COD_COMUNA":8101,"COMUNA":"CONCEPCIÓN","DIRECCION":"COCHRANE","NUMERO_DI":132,"LUGAR_REFE":"","LATITUD":-36.83264,"LONGITUD":-73.055053}},
{"type":"Feature","geometry":{"type":"Point","coordinates":[-73.0563174293134,-36.8330819528871]},"properties":{"AÑO":2020,"COD_INST":139,"TIPO_INST":"Institutos Profesionales","NOMBRE_INS":"IP DR. VIRGINIO GÓMEZ G.","NOMBRE_INM":"CASA CENTRAL","COD_REGION":8,"REGIÓN":"REGIÓN DEL BIOBÍO","COD_PROVIN":81,"PROVINCIA":"CONCEPCIÓN","COD_COMUNA":8101,"COMUNA":"CONCEPCIÓN","DIRECCION":"COCHRANE","NUMERO_DI":58,"LUGAR_REFE":"","LATITUD":-36.833082,"LONGITUD":-73.056317}},
{"type":"Feature","geometry":{"type":"Point","coordinates":[-73.0563761789883,-36.8330904563707]},"properties":{"AÑO":2020,"COD_INST":139,"TIPO_INST":"Institutos Profesionales","NOMBRE_INS":"IP DR. VIRGINIO GÓMEZ G.","NOMBRE_INM":"CASA CENTRAL","COD_REGION":8,"REGIÓN":"REGIÓN DEL BIOBÍO","COD_PROVIN":81,"PROVINCIA":"CONCEPCIÓN","COD_COMUNA":8101,"COMUNA":"CONCEPCIÓN","DIRECCION":"ARTURO PRAT","NUMERO_DI":196,"LUGAR_REFE":"","LATITUD":-36.83309,"LONGITUD":-73.056376}},
{"type":"Feature","geometry":{"type":"Point","coordinates":[-73.056098,-36.83313]},"properties":{"AÑO":2020,"COD_INST":139,"TIPO_INST":"Institutos Profesionales","NOMBRE_INS":"IP DR. VIRGINIO GÓMEZ G.","NOMBRE_INM":"CASA CENTRAL","COD_REGION":8,"REGIÓN":"REGIÓN DEL BIOBÍO","COD_PROVIN":81,"PROVINCIA":"CONCEPCIÓN","COD_COMUNA":8101,"COMUNA":"CONCEPCIÓN","DIRECCION":"COCHRANE","NUMERO_DI":32,"LUGAR_REFE":"-50","LATITUD":-36.83313,"LONGITUD":-73.056098}},
{"type":"Feature","geometry":{"type":"Point","coordinates":[-73.0562969964081,-36.8334520347638]},"properties":{"AÑO":2020,"COD_INST":139,"TIPO_INST":"Institutos Profesionales","NOMBRE_INS":"IP DR. VIRGINIO GÓMEZ G.","NOMBRE_INM":"CASA CENTRAL","COD_REGION":8,"REGIÓN":"REGIÓN DEL BIOBÍO","COD_PROVIN":81,"PROVINCIA":"CONCEPCIÓN","COD_COMUNA":8101,"COMUNA":"CONCEPCIÓN","DIRECCION":"CHACABUCO","NUMERO_DI":9,"LUGAR_REFE":"","LATITUD":-36.833452,"LONGITUD":-73.056297}},
{"type":"Feature","geometry":{"type":"Point","coordinates":[-73.056067,-36.833637]},"properties":{"AÑO":2020,"COD_INST":139,"TIPO_INST":"Institutos Profesionales","NOMBRE_INS":"IP DR. VIRGINIO GÓMEZ G.","NOMBRE_INM":"CASA CENTRAL","COD_REGION":8,"REGIÓN":"REGIÓN DEL BIOBÍO","COD_PROVIN":81,"PROVINCIA":"CONCEPCIÓN","COD_COMUNA":8101,"COMUNA":"CONCEPCIÓN","DIRECCION":"CHACABUCO","NUMERO_DI":15,"LUGAR_REFE":"","LATITUD":-36.833637,"LONGITUD":-73.056067}},
{"type":"Feature","geometry":{"type":"Point","coordinates":[-73.0315893886974,-36.8345819654082]},"properties":{"AÑO":2020,"COD_INST":87,"TIPO_INST":"Universidades Privadas CRUCH","NOMBRE_INS":"UNIVERSIDAD DE CONCEPCIÓN","NOMBRE_INM":"FACULTAD CIENCIAS FORESTALES AMPLIACION 1 2 Y 3 PISOS","COD_REGION":8,"REGIÓN":"REGIÓN DEL BIOBÍO","COD_PROVIN":81,"PROVINCIA":"CONCEPCIÓN","COD_COMUNA":8101,"COMUNA":"CONCEPCIÓN","DIRECCION":"VICTORIA","NUMERO_DI":631,"LUGAR_REFE":"HIJUELA 6A CAMPUS","LATITUD":-36.834582,"LONGITUD":-73.031589}},
{"type":"Feature","geometry":{"type":"Point","coordinates":[-73.032381,-36.834743]},"properties":{"AÑO":2020,"COD_INST":87,"TIPO_INST":"Universidades Privadas CRUCH","NOMBRE_INS":"UNIVERSIDAD DE CONCEPCIÓN","NOMBRE_INM":"FACULTAD CIENCIAS ECONOMICAS Y ADMINISTRATIVAS","COD_REGION":8,"REGIÓN":"REGIÓN DEL BIOBÍO","COD_PROVIN":81,"PROVINCIA":"CONCEPCIÓN","COD_COMUNA":8101,"COMUNA":"CONCEPCIÓN","DIRECCION":"CALLE VICTORIA","NUMERO_DI":477,"LUGAR_REFE":"CAMPUS","LATITUD":-36.834743,"LONGITUD":-73.032381}},
{"type":"Feature","geometry":{"type":"Point","coordinates":[-73.049381,-36.853977]},"properties":{"AÑO":2020,"COD_INST":20,"TIPO_INST":"Universidades Privadas","NOMBRE_INS":"UNIVERSIDAD ANDRÉS BELLO","NOMBRE_INM":"SEDE CONCEPCION","COD_REGION":8,"REGIÓN":"REGIÓN DEL BIOBÍO","COD_PROVIN":81,"PROVINCIA":"CONCEPCIÓN","COD_COMUNA":8101,"COMUNA":"CONCEPCIÓN","DIRECCION":"AUTOPISTA CONCEPCION TALCAHUANO","NUMERO_DI":7100,"LUGAR_REFE":"LOTE UNO D UNO","LATITUD":-36.853977,"LONGITUD":-73.049381}},
{"type":"Feature","geometry":{"type":"Point","coordinates":[-73.049381,-36.853977]},"properties":{"AÑO":2020,"COD_INST":45,"TIPO_INST":"Universidades Privadas","NOMBRE_INS":"UNIVERSIDAD DEL DESARROLLO","NOMBRE_INM":"CAMPUS PEDRO DE VALDIVIA","COD_REGION":8,"REGIÓN":"REGIÓN DEL BIOBÍO","COD_PROVIN":81,"PROVINCIA":"CONCEPCIÓN","COD_COMUNA":8101,"COMUNA":"CONCEPCIÓN","DIRECCION":"PEDRO DE VALDIVIA","NUMERO_DI":1711,"LUGAR_REFE":"1783","LATITUD":-36.853977,"LONGITUD":-73.049381}},
{"type":"Feature","geometry":{"type":"Point","coordinates":[-70.680638,-33.367832]},"properties":{"AÑO":2020,"COD_INST":143,"TIPO_INST":"Institutos Profesionales","NOMBRE_INS":"IP AIEP","NOMBRE_INM":"SEDE SANTIAGO NORTE","COD_REGION":13,"REGIÓN":"REGIÓN METROPOLITANA DE SANTIAGO","COD_PROVIN":131,"PROVINCIA":"SANTIAGO","COD_COMUNA":13104,"COMUNA":"CONCHALÍ","DIRECCION":"AMERICO VESPUCIO","NUMERO_DI":1796,"LUGAR_REFE":"","LATITUD":-33.367832,"LONGITUD":-70.680638}},
{"type":"Feature","geometry":{"type":"Point","coordinates":[-72.408664,-35.332537]},